,City,Cloudiness,Country,Date,Humidity,Lat,Lng,Max Temp,Wind Speed
0,hobart,20,AU,1614827142,24,-42.8794,147.3294,71.6,25.32
1,esperance,90,AU,1614827291,88,-33.8667,121.9,66.2,13.8
2,rikitea,74,PF,1614826823,78,-23.1203,-134.9692,80.64,7.05
3,shelburne,97,CA,1614827293,89,44.0787,-80.2041,33.01,7.83
4,port elizabeth,75,ZA,1614826732,88,-33.918,25.5701,68.0,9.22
5,iskateley,99,RU,1614827295,95,67.6803,53.1512,6.87,11.43
6,ushuaia,0,AR,1614826610,66,-54.8,-68.3,50.0,3.44
7,atuona,56,PF,1614826885,72,-9.8,-139.0333,80.06,8.5
8,kapaa,40,US,1614826615,68,22.0752,-159.319,73.4,19.57
9,bolitoc,0,PH,1614827300,61,15.7395,119.8769,86.34,4.18
10,yuancheng,99,CN,1614827301,51,36.652,107.7896,48.29,7.43
11,kimbe,100,PG,1614827302,89,-5.5502,150.1429,79.41,13.82
12,fare,100,PF,1614827304,74,-16.7,-151.0167,82.87,9.06
13,poum,100,NC,1614827305,83,-20.2333,164.0167,77.52,15.17
14,myshkin,100,RU,1614827306,88,57.7897,38.4545,31.59,13.31
15,coihaique,20,CL,1614827307,76,-45.5752,-72.0662,55.4,4.61
16,petropavlovsk-kamchatskiy,75,RU,1614827036,53,53.0452,158.6483,15.8,15.66
17,srednekolymsk,100,RU,1614827310,86,67.45,153.6833,-22.09,17.87
18,byumba,40,RW,1614827312,94,-1.5763,30.0675,62.6,3.44
19,torit,100,SS,1614827314,27,4.4133,32.5678,79.7,1.23
20,twentynine palms,90,US,1614827315,50,34.1356,-116.0542,51.8,8.05
21,nantucket,5,US,1614827316,77,41.2835,-70.0995,36.0,12.91
22,shimoda,75,JP,1614827317,66,34.6667,138.95,53.6,13.8
23,puerto ayora,64,EC,1614826887,95,-0.7393,-90.3518,78.01,3.27
24,butaritari,33,KI,1614827322,82,3.0707,172.7902,81.28,17.78
25,labuhan,100,ID,1614827323,70,-6.8844,112.2051,84.09,5.17
26,punta arenas,0,CL,1614826900,71,-53.15,-70.9167,50.0,12.66
27,malartic,90,CA,1614827326,73,48.1335,-78.1328,14.0,16.11
28,busselton,42,AU,1614826825,72,-33.65,115.3333,75.96,11.88
29,marechal candido rondon,7,BR,1614827329,94,-24.5561,-54.0567,70.61,8.1
30,sitka,90,US,1614827330,81,57.0531,-135.33,39.2,5.75
31,castro,100,BR,1614827114,95,-24.7911,-50.0119,63.16,3.71
32,bethel,90,US,1614826854,49,41.3712,-73.414,42.8,3.44
33,magistralnyy,65,RU,1614827334,84,56.1725,107.4458,-12.28,1.88
34,jiuquan,12,CN,1614827335,56,39.7432,98.5174,39.52,12.62
35,mount gambier,90,AU,1614827296,68,-37.8333,140.7667,64.4,11.5
36,kamaishi,75,JP,1614827337,61,39.2667,141.8833,42.8,18.41
37,never,14,FR,1614827338,86,46.9896,3.159,35.01,2.77
38,new norfolk,55,AU,1614826711,41,-42.7826,147.0587,68.0,5.99
39,cape town,75,ZA,1614827308,94,-33.9258,18.4232,66.99,12.66
40,ballina,90,AU,1614827188,64,-28.8667,153.5667,75.2,12.66
41,zhezkazgan,90,KZ,1614826973,86,47.8043,67.7144,19.4,6.71
42,lagoa,100,PT,1614827345,92,39.05,-27.9833,60.55,22.46
43,half moon bay,90,US,1614827346,81,37.4636,-122.4286,52.0,9.22
44,mitsamiouli,100,KM,1614827347,77,-11.3847,43.2844,81.95,12.1
45,ulladulla,0,AU,1614826758,38,-35.35,150.4667,77.0,5.75
46,jamestown,90,US,1614826902,98,42.097,-79.2353,35.01,5.88
47,bluff,38,NZ,1614826923,53,-46.6,168.3333,63.0,5.01
48,albany,90,US,1614827210,69,42.6001,-73.9662,37.4,8.05
49,pandan,47,PH,1614827353,68,14.0453,124.1694,82.24,13.02
50,saskylakh,44,RU,1614827354,80,71.9167,114.0833,-36.42,1.5
51,tiksi,100,RU,1614827357,98,71.6872,128.8694,-12.69,10.56
52,vaini,75,TO,1614827358,74,-21.2,-175.2,84.2,12.66
53,shizunai,97,JP,1614827359,88,42.3339,142.3669,34.66,8.23
54,bela,0,IN,1614827360,19,25.9333,81.9833,74.82,4.32
55,mataura,65,NZ,1614827361,53,-46.1927,168.8643,63.0,5.01
56,longyearbyen,40,SJ,1614827363,66,78.2186,15.6401,6.8,9.22
57,port macquarie,75,AU,1614827365,57,-31.4333,152.9167,77.0,6.91
58,nome,1,US,1614827366,71,64.5011,-165.4064,-2.2,8.05
59,warmbad,0,NA,1614827368,40,-28.45,18.7333,74.97,3.8
60,yerbogachen,1,RU,1614827370,84,61.2767,108.0108,-23.87,5.61
61,khatanga,0,RU,1614827371,79,71.9667,102.5,-34.22,7.09
62,yura,100,PE,1614827372,84,-16.2522,-71.6797,55.33,1.45
63,mahebourg,75,MU,1614827363,88,-20.4081,57.7,75.2,8.05
64,port lincoln,1,AU,1614827375,58,-34.7333,135.8667,66.54,12.39
65,cherskiy,100,RU,1614827376,97,68.75,161.3,-0.29,7.72
66,normandin,0,CA,1614827378,61,48.8333,-72.5321,8.6,19.57
67,saint-philippe,0,RE,1614827379,65,-21.3585,55.7679,78.8,3.44
68,upernavik,100,GL,1614827380,85,72.7868,-56.1549,-6.03,18.23
69,port alfred,82,ZA,1614826801,93,-33.5906,26.891,69.01,1.99
70,katangli,76,RU,1614827384,91,51.7102,143.2326,27.34,15.52
71,kamenka,100,RU,1614827385,88,51.3223,42.7678,27.0,1.01
72,maragogi,9,BR,1614827386,85,-9.0122,-35.2225,76.8,6.58
73,kavieng,39,PG,1614827056,74,-2.5744,150.7967,83.34,11.21
74,carnarvon,75,AU,1614827388,74,-24.8667,113.6333,80.6,11.5
75,kahului,40,US,1614827145,64,20.8947,-156.47,75.2,24.16
76,sosnogorsk,100,RU,1614827163,95,63.6023,53.8817,8.73,4.74
77,saldanha,0,ZA,1614826881,88,-33.0117,17.9442,64.4,8.05
78,baykit,100,RU,1614827393,82,61.67,96.37,-17.55,3.89
79,mersin,0,TR,1614827394,93,36.862,34.6509,48.2,6.91
80,victoria,89,HK,1614827154,86,22.2855,114.1577,66.99,4.0
81,gibara,20,CU,1614827396,60,21.1097,-76.1317,73.4,1.14
82,san patricio,1,US,1614826612,72,28.017,-97.5169,59.0,9.22
83,chickasha,1,US,1614827399,43,35.0526,-97.9364,53.6,8.05
84,yadgir,0,IN,1614827400,29,16.7667,77.1333,76.89,4.14
85,mar del plata,20,AR,1614826937,94,-38.0023,-57.5575,70.0,8.05
86,port-gentil,100,GA,1614827407,83,-0.7193,8.7815,81.72,14.72
87,yellowknife,20,CA,1614827281,71,62.456,-114.3525,-7.6,10.36
88,iquitos,20,PE,1614827410,94,-3.7481,-73.2472,73.4,3.44
89,ponta do sol,60,PT,1614827073,71,32.6667,-17.1,59.0,1.99
90,quirinopolis,90,BR,1614827412,88,-18.4483,-50.4517,70.74,3.71
91,santa cruz de tenerife,0,ES,1614827364,87,28.4682,-16.2546,61.0,11.5
92,pevek,100,RU,1614827365,87,69.7008,170.3133,5.27,10.71
93,hermanus,77,ZA,1614827030,93,-34.4187,19.2345,66.0,8.88
94,anadyr,90,RU,1614827416,85,64.75,177.4833,5.0,64.87
95,shaunavon,0,CA,1614827418,64,49.6501,-108.4181,35.6,4.61
96,cidreira,80,BR,1614826915,91,-30.1811,-50.2056,75.18,3.04
97,tuktoyaktuk,75,CA,1614827420,76,69.4541,-133.0374,-23.8,3.44
98,ayan,78,RU,1614827422,75,56.45,138.1667,-1.03,11.61
99,kaitangata,43,NZ,1614827347,71,-46.2817,169.8464,59.0,8.01
100,torbay,90,CA,1614827424,86,47.6666,-52.7314,24.01,20.71
101,aripuana,100,BR,1614827124,99,-9.1667,-60.6333,70.95,1.5
102,kavaratti,0,IN,1614827428,66,10.5669,72.642,82.15,3.76
103,hammerfest,90,NO,1614827311,86,70.6634,23.6821,23.0,20.71
104,guerrero negro,14,MX,1614827432,69,27.9769,-114.0611,60.85,12.77
105,noumea,75,NC,1614827433,74,-22.2763,166.4572,80.6,4.61
106,mill valley,36,US,1614827434,85,37.906,-122.545,51.01,3.0
107,hilo,1,US,1614827437,41,19.7297,-155.09,77.0,8.05
108,cururupu,0,BR,1614827438,95,-1.8283,-44.8683,73.76,2.55
109,garissa,8,KE,1614827439,78,-0.4536,39.6401,74.52,2.82
110,udankudi,20,IN,1614827440,73,8.4333,78.0167,78.8,4.61
111,tautira,75,PF,1614826692,78,-17.7333,-149.15,82.4,5.75
112,ossora,99,RU,1614827442,82,59.2353,163.0719,4.15,9.71
113,geraldton,90,AU,1614826872,69,-28.7667,114.6,78.8,16.11
114,ryotsu,40,JP,1614827445,47,38.0833,138.4333,53.6,5.75
115,barrow,1,US,1614827446,76,71.2906,-156.7887,-18.4,6.91
116,axim,100,GH,1614827423,90,4.8699,-2.2405,79.59,8.99
117,nanortalik,100,GL,1614827449,81,60.1432,-45.2371,36.27,21.45
118,zeya,100,RU,1614827451,80,53.75,127.2667,3.4,5.08
119,makasar,20,ID,1614827452,74,-5.14,119.4221,86.0,4.61
120,garmsar,0,IR,1614827454,45,35.2182,52.3409,50.36,8.37
121,whitehorse,75,CA,1614827455,68,60.7161,-135.0538,23.0,5.75
122,nevsehir,0,TR,1614827241,80,38.9167,34.6667,24.8,4.61
123,ratnagiri,0,IN,1614827457,29,16.9833,73.3,81.14,5.44
124,lebu,0,CL,1614827029,83,-37.6167,-73.65,60.03,15.64
125,katsuura,75,JP,1614826898,58,35.1333,140.3,55.99,11.5
126,hambantota,1,LK,1614827359,94,6.1241,81.1185,73.4,3.44
127,kenai,1,US,1614827062,79,60.5544,-151.2583,24.8,3.44
128,porto novo,40,BJ,1614827043,89,6.4965,2.6036,84.2,12.66
129,mount isa,85,AU,1614827276,15,-20.7333,139.5,96.8,17.27
130,les escoumins,92,CA,1614827465,63,48.1111,-69.0236,21.2,24.16
131,lhokseumawe,0,ID,1614827466,64,5.1801,97.1507,84.54,8.7
132,bardiyah,0,LY,1614827467,72,31.7561,25.0865,53.51,6.4
133,bambous virieux,75,MU,1614827337,88,-20.3428,57.7575,75.99,8.05
134,sao filipe,53,CV,1614826895,74,14.8961,-24.4956,70.86,7.49
135,girne,40,CY,1614827471,93,35.3417,33.3167,48.2,12.66
136,changde,6,CN,1614827307,61,29.0464,111.6783,59.61,3.85
137,vila do maio,0,CV,1614827473,68,15.1333,-23.2167,69.8,16.11
138,chara,99,RU,1614827474,77,56.9064,118.2631,-16.29,1.9
139,hede,43,CN,1614827476,63,33.7681,120.2517,53.74,3.36
140,san quintin,0,MX,1614827477,76,30.4833,-115.95,57.27,6.4
141,yenagoa,100,NG,1614827478,91,4.9247,6.2642,77.94,2.98
142,atar,100,MR,1614827390,15,20.5169,-13.0499,67.53,9.55
143,castel san pietro terme,0,IT,1614827480,65,44.3986,11.5848,45.0,6.91
144,santa cecilia,100,BR,1614827481,99,-26.9608,-50.4269,61.45,1.1
145,sao miguel,40,BR,1614827471,94,-5.4667,-35.3667,80.6,4.61
146,nikolskoye,0,RU,1614827483,86,59.7035,30.7861,28.4,13.42
147,honningsvag,100,NO,1614827485,92,70.9821,25.9704,27.66,28.83
148,souillac,75,MU,1614826897,88,-20.5167,57.5167,75.2,8.05
149,totma,100,RU,1614827487,97,59.9747,42.7642,26.06,1.59
150,praya,0,CV,1614827488,68,14.9215,-23.5087,69.8,16.11
151,waiuku,75,NZ,1614827489,78,-37.25,174.75,73.99,8.05
152,meulaboh,0,ID,1614827117,62,4.1363,96.1285,84.16,1.74
153,husavik,0,IS,1614827491,80,66.0449,-17.3389,32.0,3.44
154,mozarlandia,92,BR,1614827472,92,-14.7447,-50.5706,71.65,1.57
155,grand forks,40,US,1614827226,100,47.9417,-97.4337,30.99,5.75
156,tasiilaq,90,GL,1614827122,64,65.6145,-37.6368,30.2,13.8
157,ahipara,0,NZ,1614827127,69,-35.1667,173.1667,70.74,11.63
158,lazaro cardenas,0,MX,1614827497,81,17.9583,-102.2,72.52,1.1
159,flinders,26,AU,1614827489,59,-34.5833,150.8552,81.0,4.0
160,karratha,13,AU,1614827417,51,-20.7377,116.8463,85.35,6.51
161,la ronge,96,CA,1614827078,86,55.1001,-105.2842,23.0,1.14
162,provideniya,0,RU,1614827503,71,64.3833,-173.3,-2.2,11.18
163,qaanaaq,70,GL,1614826975,75,77.484,-69.3632,-23.22,8.93
164,novyy urengoy,100,RU,1614827505,93,66.0833,76.6333,7.61,16.28
165,oranjestad,20,AW,1614827506,69,12.524,-70.027,78.8,13.8
166,balbalan,52,PH,1614827507,65,17.4414,121.2019,75.24,3.8
167,port hardy,90,CA,1614827424,87,50.6996,-127.4199,44.6,8.05
168,nieuw amsterdam,100,SR,1614827510,89,5.8833,-55.0833,78.01,1.99
169,gamba,100,GA,1614827511,87,-2.65,10.0,79.95,4.88
170,cabo san lucas,40,MX,1614827281,49,22.8909,-109.9124,70.0,3.44
171,bondo,65,CD,1614827513,38,3.8146,23.6866,70.14,0.96
172,leningradskiy,100,RU,1614827408,86,69.3833,178.4167,-11.33,22.12
173,warrington,90,GB,1614827393,93,53.3925,-2.5802,39.99,5.75
174,georgetown,20,MY,1614827450,74,5.4112,100.3354,86.0,3.44
175,iqaluit,90,CA,1614827463,77,63.7506,-68.5145,-4.0,28.77
176,loviisa,0,FI,1614827520,91,60.4566,26.2251,24.01,8.34
177,mvuma,53,ZW,1614827521,95,-19.2792,30.5283,56.43,4.65
178,nadvoitsy,29,RU,1614827523,96,63.8667,34.3167,10.0,6.62
179,bredasdorp,48,ZA,1614827339,88,-34.5322,20.0403,68.0,2.3
180,avera,1,US,1614827526,66,33.194,-82.5271,44.6,2.71
181,chokurdakh,100,RU,1614827028,87,70.6333,147.9167,-19.89,14.27
182,pisco,75,PE,1614827133,73,-13.7,-76.2167,75.2,9.22
183,nemuro,20,JP,1614827112,59,43.3236,145.575,32.0,19.57
184,arraial do cabo,63,BR,1614827530,83,-22.9661,-42.0278,77.0,12.66
185,zhuanghe,0,CN,1614827532,73,39.7008,122.9911,43.09,12.1
186,hithadhoo,8,MV,1614827533,60,-0.6,73.0833,82.89,7.99
187,narsaq,75,GL,1614827457,31,60.9167,-46.05,48.2,44.87
188,clyde,12,US,1614827536,69,41.3042,-82.9752,41.0,7.4
189,necochea,81,AR,1614827537,84,-38.5473,-58.7368,73.0,10.0
190,ola,99,RU,1614827539,86,59.5833,151.2833,-4.38,16.91
191,carson city,1,US,1614827540,21,39.1638,-119.7674,48.2,5.93
192,wajid,39,SO,1614827541,71,3.8093,43.2471,71.92,18.23
193,shama,100,CN,1614827542,75,33.6102,104.2852,37.9,3.69
194,carutapera,4,BR,1614827544,89,-1.195,-46.02,76.39,5.53
195,ekangala,0,ZA,1614827545,77,-25.6962,28.7492,64.0,4.61
196,oktyabrskoye,90,RU,1614827546,91,43.0645,44.7417,24.75,4.32
197,port hawkesbury,1,CA,1614827548,54,45.6169,-61.3485,27.0,23.02
198,sauk rapids,1,US,1614827549,60,45.5919,-94.1661,35.6,4.61
199,merrill,1,US,1614827550,64,45.1805,-89.6835,32.0,3.44
200,elat,0,IL,1614827551,62,29.5581,34.9482,53.6,4.61
201,vanavara,0,RU,1614827205,88,60.34,102.2797,-20.18,3.96
202,norman wells,20,CA,1614827554,76,65.282,-126.8329,-20.2,2.3
203,severo-kurilsk,96,RU,1614827555,93,50.6789,156.125,23.65,31.63
204,alofi,40,NU,1614827556,74,-19.0595,-169.9187,84.2,3.44
205,ouallam,0,NE,1614827558,18,14.3188,2.0866,77.72,8.68
206,hami,95,CN,1614827559,37,42.8,93.45,42.37,11.5
207,santa maria,75,BR,1614827354,73,-29.6842,-53.8069,77.0,4.61
208,falun,0,SE,1614827561,64,60.6036,15.626,28.4,12.66
209,canazas,7,PA,1614827562,72,8.3167,-81.2167,71.96,6.46
210,san lawrenz,20,MT,1614827564,82,36.0553,14.204,52.0,6.91
211,slave lake,1,CA,1614827565,74,55.2834,-114.769,30.2,4.61
212,edd,0,ER,1614827566,43,13.9297,41.6925,80.98,10.38
213,coruripe,17,BR,1614827567,81,-10.1256,-36.1756,76.96,7.47
214,kedrovyy,40,RU,1614827568,78,56.1667,91.8167,-0.4,2.24
215,bara,1,NG,1614827570,18,10.3744,10.7288,74.86,10.11
216,wadi maliz,40,TN,1614827571,87,36.4681,8.5495,44.6,1.14
217,mizan teferi,91,ET,1614827572,55,6.9833,35.5833,67.95,2.68
218,raudeberg,79,NO,1614827573,86,61.9875,5.1352,33.01,22.5
219,yakeshi,75,CN,1614827574,91,49.2833,120.7333,14.05,13.87
220,goma,100,CD,1614827576,77,-1.6792,29.2228,62.4,2.84
221,cockburn town,4,TC,1614827541,82,21.4612,-71.1419,76.86,13.67
222,athabasca,100,CA,1614827434,64,54.7169,-113.2854,32.0,4.61
223,touros,40,BR,1614826900,88,-5.1989,-35.4608,77.0,4.61
224,san cristobal,40,VE,1614827581,73,7.7669,-72.225,77.0,2.3
225,buala,100,SB,1614827582,79,-8.145,159.5921,81.75,8.52
226,mareeba,96,AU,1614827583,55,-17.0,145.4333,90.0,11.5
227,clyde river,1,CA,1614826948,69,70.4692,-68.5914,-22.0,3.44
228,itoman,75,JP,1614827586,64,26.1247,127.6694,73.4,14.97
229,vila franca do campo,75,PT,1614827587,100,37.7167,-25.4333,59.0,14.97
230,minas,75,UY,1614827588,88,-34.3759,-55.2377,72.0,12.66
231,severnyy-kospashskiy,100,RU,1614827589,97,59.0925,57.8008,10.76,3.96
232,vao,99,NC,1614827058,86,-22.6667,167.4833,79.14,7.85
233,isangel,92,VU,1614827591,80,-19.55,169.2667,81.16,13.27
234,buraydah,0,SA,1614827593,55,26.326,43.975,62.6,9.22
235,ahar,70,IR,1614827594,87,38.4774,47.0699,30.47,4.94
236,namibe,1,AO,1614827107,86,-15.1961,12.1522,73.29,2.08
237,obo,33,CF,1614827597,16,5.3998,26.4869,77.83,7.0
238,taoudenni,100,ML,1614827598,21,22.6783,-3.9836,68.79,9.24
239,ribeira grande,100,PT,1614827388,92,38.5167,-28.7,61.83,16.11
240,vardo,100,NO,1614827601,93,70.3705,31.1107,29.1,18.32
241,fairbanks,90,US,1614827602,78,64.8378,-147.7164,1.4,2.55
242,anaconda,1,US,1614827603,64,46.1285,-112.9423,30.2,5.75
243,codrington,100,AU,1614827156,71,-38.2667,141.9667,62.67,14.03
244,boa vista,0,BR,1614827499,69,2.8197,-60.6733,78.8,9.22
245,ostrovnoy,100,RU,1614827023,94,68.0531,39.5131,14.68,8.5
246,billings,1,US,1614827608,29,45.7833,-108.5007,48.2,3.44
247,kununurra,1,AU,1614827610,31,-15.7667,128.7333,95.0,3.44
248,pichayevo,100,RU,1614827611,98,53.2363,42.2032,27.91,14.5
249,salalah,0,OM,1614827612,68,17.0151,54.0924,68.0,4.61
250,lavrentiya,100,RU,1614827482,93,65.5833,-171.0,-13.68,2.24
251,sumbe,98,AO,1614827163,83,-11.2061,13.8437,77.67,4.54
252,kalmunai,40,LK,1614827459,65,7.4167,81.8167,80.08,3.18
253,toyooka,75,JP,1614827617,58,35.5333,134.8333,57.2,11.5
254,conceicao do araguaia,100,BR,1614827618,95,-8.2578,-49.2647,73.53,0.4
255,ulaangom,96,MN,1614827525,90,49.9811,92.0667,7.74,1.34
256,batagay,100,RU,1614827620,79,67.6333,134.6333,-30.21,2.24
257,colares,100,PT,1614827623,84,38.7992,-9.4469,57.99,8.99
258,russell,1,US,1614827370,87,32.3502,-85.1999,53.6,5.39
259,takab,19,IR,1614827625,93,36.4009,47.1133,32.11,1.61
260,canutama,100,BR,1614827626,97,-6.5339,-64.3831,72.91,2.15
261,saint-pierre,0,RE,1614827627,65,-21.3393,55.4781,80.6,4.61
262,nazas,65,MX,1614827629,32,25.2333,-104.1333,61.29,3.31
263,saint george,1,US,1614827470,14,37.1041,-113.5841,61.0,13.8
264,haines junction,100,CA,1614827170,58,60.7522,-137.5108,19.4,6.91
265,jimma,19,ET,1614827633,73,7.6667,36.8333,60.37,0.25
266,nampula,90,MZ,1614827634,94,-15.1165,39.2666,73.4,6.91
267,lima,0,PE,1614827497,83,-12.0432,-77.0282,78.01,6.91
268,lasa,0,IT,1614827638,74,46.6166,10.7002,39.0,6.91
269,hualmay,81,PE,1614827639,74,-11.0964,-77.6139,72.91,6.67
270,lorengau,98,PG,1614827640,72,-2.0226,147.2712,84.42,13.96
271,ketchikan,90,US,1614827641,93,55.3422,-131.6461,39.2,12.66
272,port augusta,0,AU,1614827642,46,-32.5,137.7667,82.99,12.66
273,kardla,33,EE,1614827644,81,58.9978,22.7492,30.0,8.01
274,banda aceh,5,ID,1614827459,70,5.5577,95.3222,84.6,12.24
275,tiarei,75,PF,1614827100,78,-17.5333,-149.3333,82.4,1.14
276,ostersund,20,SE,1614827649,74,63.1792,14.6357,26.6,13.8
277,kutum,91,SD,1614827650,20,14.2,24.6667,54.82,10.56
278,olafsvik,82,IS,1614827651,92,64.8945,-23.7142,40.6,17.05
279,zhigansk,100,RU,1614827653,82,66.7697,123.3711,-30.03,10.45
280,talnakh,50,RU,1614827655,73,69.4865,88.3972,-21.28,9.93
281,kodiak,1,US,1614827474,55,57.79,-152.4072,35.6,13.8
282,voh,100,NC,1614827658,80,-20.9667,164.7,79.11,3.67
283,tighina,0,MD,1614827660,86,46.8306,29.4711,28.4,8.05
284,dehloran,0,IR,1614827661,36,32.6941,47.2679,60.49,7.31
285,grindavik,75,IS,1614827662,100,63.8424,-22.4338,37.4,17.27
286,saint-augustin,52,CA,1614827204,96,51.226,-58.6502,14.59,5.01
287,okha,76,RU,1614827664,91,53.5739,142.9478,8.74,9.28
288,avarua,95,CK,1614827666,74,-21.2078,-159.775,84.2,3.44
289,pochutla,57,MX,1614827667,79,15.7432,-96.4661,78.01,1.01
290,batticaloa,57,LK,1614827668,64,7.7102,81.6924,80.26,2.21
291,soyo,71,AO,1614827669,88,-6.1349,12.3689,79.9,4.59
292,salekhard,99,RU,1614827671,94,66.53,66.6019,2.08,8.88
293,verkhnyachka,0,UA,1614827672,93,48.8285,30.0396,32.99,9.37
294,neuquen,0,AR,1614827488,83,-38.9516,-68.0591,71.6,9.84
295,isetskoye,100,RU,1614827674,96,56.4858,65.3226,21.74,5.97
296,sioux lookout,20,CA,1614827505,79,50.1001,-91.917,10.4,3.83
297,am timan,94,TD,1614827676,19,11.0297,20.2827,74.3,9.17
298,henties bay,0,NA,1614827195,72,-22.116,14.2845,69.73,5.79
299,gat,87,IL,1614827679,100,31.61,34.7642,48.99,3.0
300,houma,1,US,1614827593,87,29.5958,-90.7195,53.01,3.44
301,ust-karsk,100,RU,1614827681,87,52.7011,118.8077,0.72,8.9
302,dinan,75,FR,1614827682,87,48.4167,-2.25,48.2,6.91
303,east london,75,ZA,1614827683,88,-33.0153,27.9116,69.8,6.91
304,peleduy,59,RU,1614827684,87,59.6289,112.7406,-19.73,4.41
305,kokstad,0,ZA,1614827685,79,-30.5472,29.4241,56.8,3.6
306,lompoc,40,US,1614827415,71,34.6391,-120.4579,51.8,3.44
307,kupang,75,ID,1614827688,84,-10.1667,123.5833,84.2,6.91
308,denpasar,20,ID,1614827414,74,-8.65,115.2167,84.2,5.75
309,coquimbo,90,CL,1614827673,82,-29.9533,-71.3436,62.6,3.44
310,marzuq,0,YE,1614827692,52,14.4,46.4667,56.57,3.76
311,sao joao da barra,99,BR,1614827694,88,-21.6403,-41.0511,75.54,12.84
312,ponta delgada,75,PT,1614827695,100,37.7333,-25.6667,59.0,13.8
313,deputatskiy,100,RU,1614827696,86,69.3,139.9,-26.0,6.02
314,marsaxlokk,20,MT,1614827697,82,35.8419,14.5431,52.0,6.91
315,shingu,75,JP,1614827699,44,33.7333,135.9833,60.8,16.11
316,kruisfontein,0,ZA,1614827442,93,-34.0033,24.7314,62.01,3.53
317,cap malheureux,19,MU,1614827702,83,-19.9842,57.6142,77.0,1.99
318,hofn,41,IS,1614827704,88,64.2539,-15.2082,33.98,8.63
319,faya,0,SA,1614827469,82,18.3851,42.4509,55.4,8.05
320,luderitz,0,NA,1614827706,61,-26.6481,15.1594,67.69,13.62
321,concarneau,90,FR,1614827708,100,47.875,-3.9225,48.2,4.14
322,bud,1,US,1614827709,81,39.447,-86.1758,44.01,5.91
323,plettenberg bay,0,ZA,1614827421,89,-34.0527,23.3716,63.16,3.18
324,dikson,56,RU,1614827711,79,73.5069,80.5464,-25.53,12.06
325,viedma,96,AR,1614827707,83,-40.8135,-62.9967,70.63,7.94
326,humaita,83,BR,1614827713,98,-7.5061,-63.0208,72.0,2.73
327,nanakuli,20,US,1614827714,53,21.3906,-158.1547,77.0,9.22
328,klaksvik,79,FO,1614827715,80,62.2266,-6.589,28.4,6.91
329,olanchito,40,HN,1614827716,83,15.5,-86.5667,78.8,9.22
330,hobyo,2,SO,1614827718,79,5.3505,48.5268,78.1,17.31
331,buribay,10,RU,1614827719,91,51.9617,58.1592,12.85,13.82
332,kangaatsiaq,100,GL,1614827720,86,68.3065,-53.4641,19.94,12.3
333,fort walton beach,1,US,1614827723,82,30.4058,-86.6188,55.99,7.72
334,jamame,35,SO,1614827724,82,0.0722,42.7506,75.78,10.02
335,walvis bay,0,NA,1614827725,65,-22.9575,14.5053,70.92,8.59
336,vetlanda,90,SE,1614827726,93,57.4289,15.0776,34.0,6.91
337,inhambane,20,MZ,1614827728,95,-23.865,35.3833,73.67,7.09
338,arlit,0,NE,1614827730,19,18.7369,7.3853,71.04,11.23
339,luena,100,AO,1614827731,93,-11.7833,19.9167,61.77,2.04
340,moyo,100,UG,1614827733,33,3.6609,31.7247,74.46,3.69
341,rodeo,1,US,1614827734,71,38.033,-122.2669,51.8,12.66
342,asyut,0,EG,1614827735,76,27.181,31.1837,48.2,9.22
343,correntina,57,BR,1614827738,78,-13.3433,-44.6367,67.6,2.15
344,conneaut,1,US,1614827537,80,41.9476,-80.5542,32.0,5.53
345,te anau,45,NZ,1614827740,44,-45.4167,167.7167,58.59,10.11
346,umm kaddadah,1,SD,1614827741,25,13.6017,26.6876,64.06,19.95
347,sangmelima,73,CM,1614827743,93,2.9333,11.9833,69.85,2.3
348,atasu,54,KZ,1614827744,88,48.6814,71.6433,13.23,11.05
349,presidencia roque saenz pena,0,AR,1614827745,77,-26.7852,-60.4388,77.0,4.0
350,belmonte,20,BR,1614827746,78,-15.8631,-38.8828,77.0,5.75
351,kaz,0,RU,1614827748,93,52.9113,87.3105,14.86,4.12
352,pangnirtung,100,CA,1614827474,86,66.1451,-65.7125,9.61,1.23
353,bow island,0,CA,1614827702,65,49.8668,-111.3684,39.99,9.22
354,centralia,1,US,1614827462,81,46.7162,-122.9543,46.99,1.54
355,yasenskaya,0,RU,1614827753,89,46.3592,38.269,33.22,7.85
356,nuevo ideal,100,MX,1614827754,29,24.8875,-105.0728,61.39,6.29
357,dingle,73,PH,1614827712,73,10.9995,122.6711,83.52,14.85
358,maues,100,BR,1614827758,97,-3.3836,-57.7186,73.0,4.07
359,azuaga,25,ES,1614827759,92,38.2667,-5.6833,46.0,7.0
360,caravelas,85,BR,1614827177,87,-17.7125,-39.2481,74.79,4.07
361,iida,65,JP,1614827496,51,35.5197,137.8207,54.0,5.99
362,bereslavka,0,RU,1614827762,93,48.6254,44.0449,24.8,13.42
363,goderich,99,CA,1614827763,86,43.7501,-81.7165,33.8,9.22
364,meadow lake,40,US,1614827765,15,34.8014,-106.5436,54.0,9.22
365,royan,90,FR,1614827766,93,45.6285,-1.0281,46.99,3.96
366,homer,1,US,1614827767,50,59.6425,-151.5483,30.0,4.61
367,dukat,100,RU,1614827768,91,62.55,155.55,-31.65,9.51
368,mongo,100,TD,1614827769,16,12.1844,18.693,70.09,6.73
369,cumberland,1,US,1614827770,75,35.0502,-78.8664,46.99,5.75
370,bengkulu,92,ID,1614827771,62,-3.8004,102.2655,85.21,3.8
371,los llanos de aridane,0,ES,1614827773,59,28.6585,-17.9182,62.6,10.36
372,faanui,100,PF,1614827774,73,-16.4833,-151.75,82.72,6.98
373,akersberga,31,SE,1614827776,70,59.4794,18.2997,30.0,5.99
374,kokino,5,RU,1614827778,96,52.4964,34.7808,28.51,13.33
375,galle,27,LK,1614827779,65,6.0367,80.217,79.56,11.86
376,sangolqui,90,EC,1614827780,94,-0.3341,-78.4522,55.4,4.61
377,puerto penasco,0,MX,1614827781,75,31.3167,-113.5333,63.0,15.99
378,ancud,0,CL,1614827484,87,-41.8697,-73.8203,55.99,4.61
379,nebolchi,56,RU,1614827783,97,59.1239,33.3454,23.05,8.84
380,hokitika,91,NZ,1614827784,74,-42.7167,170.9667,60.01,10.65
381,tura,0,IN,1614827785,20,25.5198,90.2201,77.86,3.49
382,honiara,100,SB,1614827787,90,-9.4333,159.95,78.46,4.18
383,pechenga,90,RU,1614827788,93,69.5259,31.1703,24.8,11.5
384,kaeo,71,NZ,1614827789,77,-35.1,173.7833,75.0,8.99
385,aklavik,94,CA,1614827791,76,68.2191,-135.0107,-20.2,1.14
386,karpathos,0,GR,1614827792,71,35.507,27.2132,55.4,19.57
387,portland,0,US,1614827760,73,45.5234,-122.6762,52.0,1.01
388,babu,94,CN,1614827795,84,24.4167,111.5167,61.7,1.5
389,grand gaube,25,MU,1614827796,82,-20.0064,57.6608,78.01,1.99
390,berezovyy,60,RU,1614827798,91,51.6667,135.7,23.23,2.33
391,yelizovo,75,RU,1614827800,49,53.1873,158.3805,17.6,17.9
392,ternate,44,ID,1614827802,67,0.8,127.4,85.14,0.76
393,tahoua,0,NE,1614827804,12,14.8888,5.2692,75.2,6.91
394,tungor,79,RU,1614827805,83,53.3808,142.9564,11.73,9.08
395,seoul,90,KR,1614827801,50,37.5683,126.9778,50.0,6.91
396,green river,1,US,1614827808,32,41.5286,-109.4662,37.4,12.66
397,yulara,18,AU,1614827809,13,-25.2406,130.9889,100.4,14.97
398,rawah,57,IQ,1614827810,57,34.4816,41.9093,58.57,21.25
399,tual,100,ID,1614827811,72,-5.6667,132.75,82.65,16.22
400,shumskiy,97,RU,1614827812,90,54.8318,99.1328,-1.14,3.78
401,vila velha,20,BR,1614827813,94,-20.3297,-40.2925,75.2,2.3
402,pringsewu,95,ID,1614827815,69,-5.3582,104.9744,83.03,2.04
403,valer,0,NO,1614827816,55,60.6785,11.8331,30.99,9.22
404,partizanskoye,100,RU,1614827817,95,55.5006,94.39,14.95,5.95
405,smirnykh,87,RU,1614827818,94,49.75,142.8333,32.18,10.02
406,loiza,1,PR,1614827820,78,18.4313,-65.8802,75.2,4.61
407,suslonger,75,RU,1614827822,86,56.3156,48.2531,23.0,15.66
408,vryburg,0,ZA,1614827823,56,-26.9566,24.7284,62.83,4.05
409,ambilobe,11,MG,1614827825,95,-13.2,49.05,73.72,1.12
410,kinlochleven,100,GB,1614827826,94,56.7115,-4.9661,33.01,2.33
411,san felipe,46,VE,1614827827,89,10.3399,-68.7425,68.85,4.47
412,kokopo,100,PG,1614827828,76,-4.352,152.2633,81.3,12.12
413,prince rupert,90,CA,1614827830,87,54.3161,-130.3201,41.0,14.97
414,puerto carreno,71,CO,1614827831,53,6.189,-67.4859,82.08,2.13
415,tessalit,100,ML,1614827832,11,20.1986,1.0114,67.24,8.61
416,camabatela,100,AO,1614827834,98,-8.1881,15.375,64.85,0.87
417,real,40,PH,1614827835,62,14.6625,121.6047,88.0,10.36
418,khandyga,100,RU,1614827836,87,62.6667,135.6,-16.31,2.84
419,cabinda,98,AO,1614827837,85,-5.55,12.2,80.89,4.92
420,aksu,25,CN,1614827838,44,41.1231,80.2644,43.09,2.62
421,waingapu,100,ID,1614827840,62,-9.6567,120.2641,86.07,6.69
422,qasigiannguit,62,GL,1614827841,80,68.8193,-51.1922,26.6,9.22
423,makakilo city,20,US,1614827842,53,21.3469,-158.0858,77.0,9.22
424,abeche,90,TD,1614827843,12,13.8292,20.8324,71.37,18.43
425,dudinka,100,RU,1614827845,79,69.4058,86.1778,-13.63,10.92
426,santa isabel,0,BR,1614827846,88,-23.3156,-46.2214,73.4,1.19
427,krasnaya gora,90,RU,1614827847,100,52.9995,31.6023,28.4,15.66
428,sahiwal,0,PK,1614827850,24,30.6667,73.1,67.17,3.71
429,emba,99,KZ,1614827851,98,48.8264,58.1442,26.6,14.05
430,paka,40,MY,1614827852,83,4.6374,103.4368,82.4,9.22
431,gunnedah,16,AU,1614827854,44,-30.9833,150.25,82.99,4.0
432,antofagasta,0,CL,1614827688,82,-23.65,-70.4,66.2,6.91
433,ndele,4,CF,1614827856,21,8.4109,20.6473,72.43,4.56
434,verkhnyaya inta,100,RU,1614827858,96,65.9811,60.3094,9.79,2.01
435,atbasar,100,KZ,1614827859,97,51.8,68.3333,28.85,25.34
436,olinda,40,BR,1614827860,73,-8.0089,-34.8553,78.8,9.22
437,coro,2,VE,1614827861,80,11.4045,-69.6734,73.56,14.83
438,general roca,0,AR,1614827863,83,-39.0333,-67.5833,71.6,16.44
439,airai,26,TL,1614827865,72,-8.9266,125.4092,72.03,1.92
440,chapais,1,CA,1614827866,71,49.7834,-74.8492,-5.8,9.22
441,boyolangu,100,ID,1614827867,66,-8.1181,111.8935,84.85,4.7
442,margate,100,GB,1614827868,91,51.3813,1.3862,45.0,1.99
443,eureka,81,US,1614827821,84,40.8021,-124.1637,46.0,1.99
444,chuy,92,UY,1614827871,89,-33.6971,-53.4616,72.34,10.29
445,gazanjyk,69,TM,1614827669,77,39.2446,55.5154,44.71,3.96
446,fortuna,46,US,1614827873,86,40.5982,-124.1573,45.0,1.03
447,hays,1,US,1614827874,65,30.0502,-98.0336,57.99,6.87
448,mormugao,40,IN,1614827875,100,15.4,73.8,77.0,2.3
449,richards bay,0,ZA,1614827876,91,-28.783,32.0377,67.51,3.36
450,camacha,20,PT,1614827878,72,33.0833,-16.3333,59.0,10.36
451,kyabe,56,TD,1614827881,16,9.4515,18.9449,74.39,4.54
452,quatre cocos,75,MU,1614827866,94,-20.2078,57.7625,78.01,2.3
453,ilulissat,97,GL,1614827883,80,69.2167,-51.1,26.6,9.22
454,kosai,75,JP,1614827885,47,34.7105,137.5316,55.99,8.05
455,namatanai,34,PG,1614827886,71,-3.6667,152.4333,83.57,7.11
456,bosaso,38,SO,1614827887,80,11.2842,49.1816,74.28,3.65
457,shevchenkove,40,UA,1614827888,100,49.6959,37.1735,28.4,8.95
458,amazar,100,RU,1614827889,77,53.858,120.875,-3.91,9.31
459,praia,0,CV,1614827661,68,14.9215,-23.5087,69.8,16.11
460,chor,0,PK,1614827892,35,25.5167,69.7667,72.63,3.69
461,lichtenau,25,DE,1614827893,88,51.6167,8.9,39.99,3.29
462,lethem,99,GY,1614827894,72,3.3803,-59.7968,78.96,9.48
463,vila,100,PT,1614827895,93,42.0304,-8.1588,46.0,1.01
464,ngunguru,47,NZ,1614827896,77,-35.6167,174.5,75.0,8.99
465,lianzhou,83,CN,1614827897,83,24.7811,112.3825,63.54,0.85
466,pavilosta,90,LV,1614827899,100,56.8879,21.1859,35.6,1.14
467,san lorenzo,90,PY,1614827900,100,-25.3333,-57.5333,73.4,10.36
468,tubarao,99,BR,1614827759,95,-28.4667,-49.0069,70.25,1.16
469,belyy yar,1,RU,1614827902,79,53.6039,91.3903,17.6,4.47
470,araouane,74,ML,1614827903,20,18.9048,-3.5265,72.34,11.86
471,bloemfontein,0,ZA,1614827904,88,-29.1211,26.214,59.0,4.61
472,manyana,13,BW,1614827906,63,-23.4,21.7167,65.75,4.59
473,yar-sale,99,RU,1614827635,94,66.8333,70.8333,4.71,8.7
474,killybegs,98,IE,1614827908,80,54.6333,-8.45,40.86,5.35
475,nuuk,73,GL,1614827909,49,64.1835,-51.7216,42.8,13.8
476,utraula,0,IN,1614827910,24,27.3167,82.4167,69.89,5.35
477,feuchtwangen,1,DE,1614827912,87,49.1667,10.3333,44.6,4.61
478,palafrugell,90,ES,1614827913,100,41.9174,3.1631,48.2,5.75
479,nkhata bay,100,MW,1614827914,93,-11.6066,34.2907,71.2,2.59
480,krasnogvardeyskoye,35,RU,1614827915,98,45.8456,41.5186,31.06,6.71
481,areosa,20,PT,1614827917,87,41.7178,-8.8571,57.0,4.61
482,puerto baquerizo moreno,9,EC,1614827918,84,-0.9,-89.6,78.98,2.62
483,barra dos coqueiros,40,BR,1614827919,69,-10.9089,-37.0386,80.6,11.5
484,calabasas,40,US,1614827920,58,34.1578,-118.6384,54.0,8.05
485,isla vista,75,US,1614827922,76,34.4133,-119.861,52.0,3.44
486,bonnyville,75,CA,1614827923,59,54.2668,-110.735,32.0,2.3
487,coahuayana,0,MX,1614827924,78,18.7333,-103.6833,69.35,2.13
488,manaure,57,CO,1614827925,79,11.7751,-72.4445,76.64,15.86
489,pedasi,0,PA,1614827927,73,7.5333,-80.0333,78.49,19.39
490,silvan,40,TR,1614827928,100,38.1419,41.0081,33.8,3.29
491,yumen,67,CN,1614827929,54,40.2833,97.2,40.24,13.47
492,kragujevac,0,RS,1614827930,100,44.0167,20.9167,26.6,1.14
493,zhucheng,0,CN,1614827932,54,35.9947,119.3975,52.97,9.8
494,tucumcari,1,US,1614827933,12,35.1717,-103.725,51.8,5.39
495,kirksville,1,US,1614827731,75,40.1948,-92.5833,44.01,5.75
496,champoton,20,MX,1614827673,83,19.35,-90.7167,77.0,13.8
497,tawang,16,IN,1614827936,56,27.5833,91.8667,44.29,4.14
498,laizhou,11,CN,1614827937,55,37.1717,119.9214,51.03,12.77
499,rio grande,96,BR,1614827939,94,-32.035,-52.0986,73.99,12.01
500,illapel,0,CL,1614827940,80,-31.6308,-71.1653,66.7,1.61
501,south sioux city,1,US,1614827941,81,42.4739,-96.4136,48.0,6.91
502,bowen,40,AU,1614827943,74,-20.0167,148.2333,84.2,21.85
503,leshukonskoye,95,RU,1614827945,94,64.8989,45.7622,1.09,3.67
504,la rioja,90,ES,1614827946,93,42.25,-2.5,48.0,1.14
505,elko,1,US,1614827942,34,41.0002,-115.5012,46.4,5.75
506,hasaki,75,JP,1614827949,58,35.7333,140.8333,55.99,8.05
507,romanovskaya,0,RU,1614827951,94,47.5426,42.0285,29.61,9.6
508,san nicolas,20,PH,1614827952,70,18.1725,120.5953,86.0,8.05
509,comodoro rivadavia,75,AR,1614827701,88,-45.8667,-67.5,59.0,4.18
510,halifax,0,CA,1614827759,59,44.6453,-63.5724,30.2,12.66
511,belomorsk,80,RU,1614827955,96,64.5232,34.7668,14.5,7.27
512,pelym,30,RU,1614827956,95,61.0108,61.9978,10.17,4.97
513,lata,100,PT,1614827737,88,40.1629,-8.3327,57.0,2.98
514,kitimat,90,CA,1614827959,100,54.0524,-128.6534,32.0,2.3
515,jizan,20,SA,1614827960,83,17.3333,42.6667,75.2,4.61
516,bambanglipuro,100,ID,1614827961,67,-7.95,110.2833,85.1,3.94
517,ban nahin,0,LA,1614827962,49,18.2418,104.2122,86.32,2.35
518,tuatapere,83,NZ,1614827964,53,-46.1333,167.6833,64.0,3.0
519,langres,37,FR,1614827965,93,47.8333,5.3333,35.6,3.18
520,nouadhibou,0,MR,1614827966,82,20.931,-17.0347,62.6,17.27
521,pitelino,100,RU,1614827967,98,54.5777,41.8145,30.18,16.17
522,roald,20,NO,1614827969,86,62.5833,6.1333,30.2,8.05
523,paracuru,51,BR,1614827970,76,-3.41,-39.0306,82.0,18.01
524,westport,74,US,1614827813,66,41.1415,-73.3579,39.0,5.86
525,constitucion,0,CL,1614827973,67,-35.3333,-72.4167,63.66,8.61
526,zhaotong,96,CN,1614827974,67,27.3167,103.7167,48.63,5.17
527,sivas,40,TR,1614827976,86,39.7916,37.0019,17.6,6.91
528,hay river,72,CA,1614827820,84,60.8156,-115.7999,-9.4,1.14
529,wladyslawowo,75,PL,1614827979,93,54.7909,18.4009,34.0,17.27
530,mayo,1,US,1614827980,70,38.8876,-76.5119,42.01,9.06
531,tiznit,3,MA,1614827981,72,29.5833,-9.5,55.78,1.25
532,burns lake,74,CA,1614827982,56,54.2331,-125.7533,39.2,4.61
533,melfi,0,IT,1614827984,70,40.9965,15.6514,41.0,16.11
534,copiapo,0,CL,1614827967,88,-27.3667,-70.3333,60.8,8.05
535,jibuti,1,DJ,1614827986,83,11.5,42.5,75.2,9.82
536,luwuk,100,ID,1614827760,79,-0.9516,122.7875,80.01,3.29
537,mezen,99,RU,1614827988,92,65.8522,44.24,-1.46,6.53
538,sanandaj,20,IR,1614827989,86,35.3144,46.9923,26.6,2.37
539,carbondale,1,US,1614827991,54,37.7273,-89.2168,51.8,4.61
540,khorixas,0,NA,1614827992,41,-20.3667,14.9667,72.61,10.83
541,sungairaya,72,ID,1614827993,71,0.7,108.9,84.6,3.11
542,hauterive,0,FR,1614827994,65,46.0901,3.4459,39.2,3.44
543,itapirapua,100,BR,1614827996,92,-15.8233,-50.6133,72.1,1.03
544,paamiut,100,GL,1614827997,53,61.994,-49.6678,41.13,11.74
545,mulege,34,MX,1614827998,49,26.8833,-111.9833,63.5,2.64
546,fairview,90,US,1614827999,42,40.8126,-73.999,46.4,5.3
547,broome,75,US,1614828000,75,42.2506,-75.833,35.01,8.05
548,uvat,100,RU,1614828002,97,59.1433,68.8953,21.42,8.97
549,vaasa,0,FI,1614828003,80,63.096,21.6158,26.6,6.91
550,adrar,100,MR,1614828011,22,20.5022,-10.0711,67.68,9.64
551,zyryanka,100,RU,1614828012,92,65.75,150.85,-24.39,26.19
552,dharmadam,0,IN,1614828014,52,11.7833,75.4333,80.42,4.81
553,bonfim,99,BR,1614828015,79,3.0833,-59.95,77.92,4.99
554,port hedland,40,AU,1614828017,55,-20.3167,118.5667,89.6,5.75
555,teknaf,16,BD,1614828018,67,20.8624,92.3058,79.38,2.06
556,nadym,95,RU,1614828020,95,65.5333,72.5167,5.95,10.87
557,port blair,40,IN,1614828021,83,11.6667,92.75,80.6,2.3
558,calvinia,0,ZA,1614828023,71,-31.4707,19.776,50.0,3.44
559,puerto ayacucho,77,VE,1614828024,62,5.6639,-67.6236,79.9,1.5
560,raymondville,1,US,1614827919,77,26.4815,-97.7831,61.0,6.91
561,tigre,40,AR,1614828026,78,-34.426,-58.5796,78.8,12.66
562,belaya gora,100,RU,1614828027,85,68.5333,146.4167,-24.18,13.76
563,beringovskiy,100,RU,1614828028,97,63.05,179.3167,21.85,44.36
564,kloulklubed,75,PW,1614828030,70,7.0419,134.2556,86.0,16.11
565,tocopilla,12,CL,1614828031,70,-22.092,-70.1979,69.24,1.7
566,babstovo,100,RU,1614828032,96,48.1167,132.4833,23.65,4.07
567,durban,0,ZA,1614828010,94,-29.8579,31.0292,72.0,3.44
568,mnogovershinnyy,100,RU,1614828035,93,53.9353,139.9242,4.8,2.46
569,cabedelo,20,BR,1614828037,100,-6.9811,-34.8339,75.2,5.75
570,bay roberts,90,CA,1614828038,90,47.5999,-53.2648,24.01,1.99
571,asau,2,RO,1614828039,93,46.4333,26.4,30.2,4.61
