,City,Cloudiness,Country,Date,Humidity,Lat,Lng,Max Temp,Wind Speed
0,souillac,75,MU,1614828870,94,-20.5167,57.5167,75.2,2.3
1,qaanaaq,64,GL,1614828872,75,77.484,-69.3632,-21.8,9.13
2,torbay,90,CA,1614828624,93,47.6666,-52.7314,24.01,21.85
3,rikitea,83,PF,1614828774,80,-23.1203,-134.9692,80.15,8.37
4,upernavik,100,GL,1614828876,79,72.7868,-56.1549,-8.36,18.37
5,marawi,0,PH,1614828879,81,7.9986,124.2928,82.0,5.01
6,zemio,83,CF,1614828880,14,5.0314,25.1361,80.8,5.1
7,busselton,39,AU,1614828881,71,-33.65,115.3333,76.59,13.22
8,marzuq,0,YE,1614828882,38,14.4,46.4667,63.34,4.03
9,albany,90,US,1614828869,69,42.6001,-73.9662,37.4,8.05
10,poum,100,NC,1614828885,80,-20.2333,164.0167,77.22,15.1
11,puerto ayora,88,EC,1614828886,96,-0.7393,-90.3518,77.0,1.61
12,carnarvon,75,AU,1614828888,74,-24.8667,113.6333,80.6,11.5
13,east london,75,ZA,1614828890,88,-33.0153,27.9116,69.8,6.91
14,ribeira grande,100,PT,1614828891,91,38.5167,-28.7,61.59,14.9
15,shentala,63,RU,1614828892,97,54.45,51.4833,12.99,12.82
16,bonavista,50,CA,1614828894,92,48.6499,-53.1147,24.01,8.05
17,port alfred,75,ZA,1614828895,93,-33.5906,26.891,69.01,1.01
18,avarua,20,CK,1614828896,78,-21.2078,-159.775,82.4,3.44
19,lasa,0,IT,1614828897,74,46.6166,10.7002,39.0,6.91
20,mar del plata,40,AR,1614828600,94,-38.0023,-57.5575,70.0,9.22
21,saint george,1,US,1614828661,14,37.1041,-113.5841,61.0,13.8
22,lazaro cardenas,0,MX,1614828601,82,17.9583,-102.2,71.78,2.82
23,kodinsk,86,RU,1614828902,85,58.6881,99.1844,-14.3,5.39
24,kapaa,75,US,1614828904,73,22.0752,-159.319,71.6,16.11
25,arraial do cabo,72,BR,1614828905,88,-22.9661,-42.0278,77.0,12.66
26,havre-saint-pierre,90,CA,1614828906,79,50.2334,-63.5986,14.0,25.32
27,changji,79,CN,1614828907,69,44.0167,87.3167,28.4,4.47
28,the valley,20,AI,1614828909,78,18.217,-63.0578,77.0,10.36
29,abis,40,PH,1614828910,62,9.7173,122.9438,87.8,13.8
30,saskylakh,43,RU,1614828911,80,71.9167,114.0833,-34.87,1.48
31,blackwater,72,AU,1614828912,47,-23.5833,148.8833,86.74,15.39
32,tigil,100,RU,1614828915,86,57.8,158.6667,2.03,29.28
33,tasiilaq,90,GL,1614828916,64,65.6145,-37.6368,30.2,13.8
34,methoni,0,GR,1614828917,75,36.8197,21.7049,51.01,2.3
35,hilo,1,US,1614828918,41,19.7297,-155.09,77.0,8.05
36,esmeraldas,0,BR,1614828919,78,-19.7625,-44.3139,69.8,2.3
37,narsaq,75,GL,1614828921,31,60.9167,-46.05,48.2,44.87
38,asau,1,RO,1614828922,93,46.4333,26.4,30.2,4.61
39,faya,0,SA,1614828923,82,18.3851,42.4509,57.2,8.05
40,ushuaia,0,AR,1614828685,66,-54.8,-68.3,50.0,5.75
41,puerto escondido,1,MX,1614828711,83,15.85,-97.0667,78.8,5.06
42,wum,98,CM,1614828926,28,6.3833,10.0667,65.23,0.49
43,vaini,75,TO,1614828927,74,-21.2,-175.2,84.2,12.66
44,mataura,13,NZ,1614828928,58,-46.1927,168.8643,62.01,3.0
45,pafos,75,CY,1614828930,66,34.7667,32.4167,53.6,5.75
46,cabo san lucas,40,MX,1614828931,49,22.8909,-109.9124,69.8,3.44
47,vardo,40,NO,1614828932,73,70.3705,31.1107,21.2,13.8
48,sitka,90,US,1614828822,87,57.0531,-135.33,39.2,5.75
49,huarmey,58,PE,1614828935,79,-10.0681,-78.1522,72.75,6.31
50,arequipa,100,PE,1614828937,74,-16.3989,-71.535,59.36,2.19
51,punta arenas,0,CL,1614828938,71,-53.15,-70.9167,50.0,14.97
52,luganville,100,VU,1614828939,91,-15.5333,167.1667,78.1,10.0
53,namatanai,67,PG,1614828940,74,-3.6667,152.4333,82.47,7.11
54,osorio,100,BR,1614828941,89,-29.8867,-50.2697,75.0,1.63
55,ahipara,4,NZ,1614828943,67,-35.1667,173.1667,70.05,9.55
56,dikson,33,RU,1614828944,80,73.5069,80.5464,-26.0,12.21
57,puri,40,IN,1614828945,94,19.8,85.85,75.2,8.93
58,victoria,100,HK,1614828946,86,22.2855,114.1577,68.0,6.8
59,bambous virieux,75,MU,1614828948,94,-20.3428,57.7575,81.0,2.3
60,merauke,100,ID,1614828949,68,-8.4667,140.3333,85.03,12.46
61,shirokiy,100,RU,1614828950,88,49.758,129.523,23.94,5.68
62,peterhead,90,GB,1614828951,100,57.5058,-1.7981,42.01,6.91
63,san cristobal,40,VE,1614828952,73,7.7669,-72.225,77.0,2.3
64,bredasdorp,57,ZA,1614828953,94,-34.5322,20.0403,66.2,3.44
65,hermanus,81,ZA,1614828955,93,-34.4187,19.2345,64.99,8.99
66,warri,80,NG,1614828958,92,5.5167,5.75,78.03,2.33
67,faanui,100,PF,1614828959,73,-16.4833,-151.75,82.83,11.41
68,bengkulu,86,ID,1614828956,60,-3.8004,102.2655,86.07,5.46
69,cape town,75,ZA,1614828790,88,-33.9258,18.4232,66.99,13.8
70,kaitangata,45,NZ,1614828962,72,-46.2817,169.8464,57.99,5.01
71,talcahuano,0,CL,1614828915,82,-36.7167,-73.1167,62.6,8.05
72,ascension,1,US,1614828966,81,30.2169,-90.9001,51.01,4.65
73,ahmadpur,0,IN,1614828967,43,18.7,76.9333,71.6,5.79
74,waipawa,85,NZ,1614828968,52,-41.4122,175.5153,69.8,19.57
75,ancud,0,CL,1614828970,87,-41.8697,-73.8203,55.0,4.61
76,yellowknife,20,CA,1614828971,70,62.456,-114.3525,-9.4,11.5
77,jamestown,90,US,1614828806,97,42.097,-79.2353,34.0,9.62
78,caravelas,90,BR,1614828973,87,-17.7125,-39.2481,74.19,3.11
79,severo-kurilsk,96,RU,1614828974,94,50.6789,156.125,25.02,35.1
80,abu samrah,46,SY,1614828976,90,35.3029,37.1841,44.67,7.78
81,lompoc,40,US,1614828977,71,34.6391,-120.4579,51.8,3.44
82,bluff,32,NZ,1614828964,58,-46.6,168.3333,62.01,3.0
83,alyangula,51,AU,1614828979,60,-13.8483,136.4192,90.36,5.53
84,fuyu,99,CN,1614828980,99,45.1833,124.8167,34.99,11.05
85,mangan,3,IN,1614828981,30,27.5167,88.5333,69.87,4.88
86,college,40,US,1614828982,71,64.8569,-147.8028,0.0,3.44
87,molteno,19,ZA,1614828984,57,-31.3968,26.3625,57.61,3.49
88,hamilton,1,US,1614828931,70,39.1834,-84.5333,48.2,5.35
89,mulege,31,MX,1614828986,51,26.8833,-111.9833,61.7,2.04
90,butaritari,27,KI,1614828988,81,3.0707,172.7902,81.54,18.32
91,comodoro rivadavia,75,AR,1614828989,88,-45.8667,-67.5,59.0,6.31
92,porto de moz,100,BR,1614828990,96,-1.7483,-52.2383,73.51,2.93
93,kodiak,1,US,1614828992,55,57.79,-152.4072,35.6,13.8
94,mehamn,100,NO,1614828993,80,71.0357,27.8492,27.27,15.21
95,arman,23,RU,1614828994,84,59.7,150.1667,-4.95,8.19
96,henties bay,0,NA,1614828995,73,-22.116,14.2845,69.04,4.83
97,svetlogorsk,5,BY,1614828968,94,52.6333,29.7333,31.69,11.05
98,bam,11,IR,1614828997,25,29.106,58.357,66.76,3.6
99,pevek,100,RU,1614828998,77,69.7008,170.3133,4.82,12.15
100,leningradskiy,100,RU,1614829000,86,69.3833,178.4167,-11.13,23.82
101,nikolskoye,0,RU,1614829001,80,59.7035,30.7861,28.4,13.42
102,lamont,1,US,1614829002,33,35.2597,-118.9143,57.2,8.05
103,xining,100,CN,1614829003,50,36.6167,101.7667,39.85,0.96
104,castro,100,BR,1614829005,96,-24.7911,-50.0119,62.73,3.2
105,gdov,52,RU,1614829006,97,58.7406,27.8122,26.55,6.73
106,fairbanks,90,US,1614828879,84,64.8378,-147.7164,1.0,2.55
107,barber,20,CW,1614829008,69,12.2833,-69.0667,78.8,12.66
108,lufilufi,75,WS,1614829009,70,-13.8745,-171.5986,89.6,11.5
109,kruisfontein,0,ZA,1614828992,93,-34.0033,24.7314,62.01,3.06
110,tabou,26,CI,1614829012,91,4.423,-7.3528,78.31,7.23
111,aksarka,98,RU,1614829013,94,66.5606,67.7975,3.88,5.06
112,prince rupert,90,CA,1614828741,87,54.3161,-130.3201,41.0,14.97
113,katobu,100,ID,1614829016,72,-4.9408,122.5276,85.46,2.62
114,tuktoyaktuk,75,CA,1614829018,76,69.4541,-133.0374,-23.8,3.44
115,svetlaya,25,RU,1614829019,85,46.5389,138.3297,35.29,14.29
116,amapa,100,BR,1614828978,97,1.0,-52.0,72.14,3.09
117,barrow,1,US,1614829021,76,71.2906,-156.7887,-18.4,6.91
118,greenville,1,US,1614828780,100,35.6127,-77.3663,43.0,4.61
119,woodward,1,US,1614829025,40,36.4337,-99.3904,53.6,10.36
120,kupang,75,ID,1614829026,89,-10.1667,123.5833,84.2,12.66
121,hobart,0,AU,1614829005,28,-42.8794,147.3294,69.8,17.27
122,mahibadhoo,17,MV,1614829028,61,3.7833,72.9667,81.27,11.32
123,joshimath,3,IN,1614829029,33,30.5667,79.5667,56.21,1.41
124,itarema,43,BR,1614829031,84,-2.9248,-39.9167,77.65,9.26
125,kenai,1,US,1614828794,79,60.5544,-151.2583,24.8,3.44
126,laibin,82,CN,1614828741,69,23.7,109.2667,63.68,3.44
127,ilulissat,79,GL,1614829034,80,69.2167,-51.1,26.6,9.22
128,conakry,0,GN,1614828834,82,9.538,-13.6773,79.05,7.92
129,ponta delgada,75,PT,1614829036,100,37.7333,-25.6667,59.0,13.8
130,kosovska mitrovica,0,XK,1614829037,74,42.8833,20.8667,37.0,1.68
131,cidreira,69,BR,1614829039,91,-30.1811,-50.2056,74.91,2.62
132,nizhniy tsasuchey,11,RU,1614829040,81,50.5167,115.1333,6.06,20.45
133,ochamchira,90,GE,1614829041,73,42.7121,41.4721,40.15,5.19
134,chokurdakh,100,RU,1614828945,95,70.6333,147.9167,-17.97,15.23
135,tilichiki,100,RU,1614829043,79,60.4667,166.1,2.39,20.69
136,santiago,0,CL,1614829007,64,-33.4569,-70.6483,70.0,6.91
137,prosperous,90,IE,1614829046,81,53.2903,-6.7539,39.2,6.91
138,geraldton,75,AU,1614829047,61,-28.7667,114.6,82.4,17.27
139,sangar,100,RU,1614829048,84,63.9242,127.4739,-27.35,7.9
140,camana,96,PE,1614829049,87,-16.6228,-72.7111,72.99,7.16
141,hasaki,75,JP,1614829051,58,35.7333,140.8333,55.0,8.05
142,sapernoye,0,RU,1614829052,77,60.7167,29.9505,24.01,7.16
143,wanning,85,CN,1614829053,78,18.8003,110.3967,76.46,6.71
144,kamenka,100,RU,1614829054,88,51.3223,42.7678,27.0,16.17
145,iracoubo,85,GF,1614829056,86,5.4802,-53.2011,76.87,11.36
146,tautira,75,PF,1614829057,79,-17.7333,-149.15,84.2,4.61
147,chicama,83,PE,1614829058,72,-7.8447,-79.1469,75.27,4.36
148,kyren,82,RU,1614829059,86,51.6828,102.1408,13.03,1.79
149,stonewall,75,CA,1614829061,80,50.1344,-97.3268,30.2,5.75
150,yar-sale,99,RU,1614829062,95,66.8333,70.8333,6.76,9.31
151,teguise,20,ES,1614829063,82,29.0605,-13.564,57.2,2.3
152,guarda,100,PT,1614829064,78,40.5373,-7.2658,52.0,1.99
153,new norfolk,42,AU,1614829065,39,-42.7826,147.0587,69.01,8.01
154,airai,41,TL,1614829067,86,-8.9266,125.4092,72.18,2.64
155,vostok,100,RU,1614829068,97,46.4856,135.8833,32.56,8.21
156,fortuna,41,US,1614829069,88,40.5982,-124.1573,44.01,2.37
157,santiago del estero,20,AR,1614829070,66,-27.7951,-64.2615,73.83,2.62
158,bambari,21,CF,1614829071,25,5.768,20.6757,69.89,3.44
159,sorkjosen,100,NO,1614829073,91,69.8,20.9333,23.0,15.86
160,khatanga,0,RU,1614829008,80,71.9667,102.5,-31.65,7.2
161,puerto del rosario,75,ES,1614829075,77,28.5004,-13.8627,62.6,8.05
162,salinas,90,US,1614828999,76,36.6777,-121.6555,53.6,9.22
163,clyde river,1,CA,1614829077,69,70.4692,-68.5914,-22.0,3.44
164,atar,100,MR,1614829078,23,20.5169,-13.0499,66.96,9.17
165,korla,98,CN,1614829081,55,41.7597,86.1469,44.67,6.31
166,esperance,90,AU,1614829082,83,-33.8667,121.9,68.0,17.27
167,urumqi,80,CN,1614829083,69,43.801,87.6005,28.4,4.47
168,kushiro,75,JP,1614829084,80,42.975,144.3747,30.2,11.5
169,mahebourg,75,MU,1614829085,94,-20.4081,57.7,75.2,2.3
170,dingle,79,PH,1614828988,71,10.9995,122.6711,84.18,14.47
171,lebu,0,CL,1614829088,84,-37.6167,-73.65,59.7,16.04
172,bethel,1,US,1614829089,69,41.3712,-73.414,37.99,5.75
173,meridian,1,US,1614829090,65,43.6121,-116.3915,45.0,6.91
174,arlit,0,NE,1614829091,10,18.7369,7.3853,71.13,12.48
175,kahului,40,US,1614828878,64,20.8947,-156.47,75.2,24.16
176,yenotayevka,0,RU,1614829094,98,47.2456,47.0281,27.0,11.95
177,bougouni,6,ML,1614829095,19,11.417,-7.479,78.15,0.94
178,hrodna,90,BY,1614829096,100,53.6884,23.8258,32.0,6.71
179,lebyazhye,100,RU,1614829097,98,55.2689,66.4947,27.5,12.73
180,chulumani,28,BO,1614829098,93,-16.4096,-67.5263,61.92,1.21
181,vestmannaeyjar,92,IS,1614829099,79,63.4427,-20.2734,39.33,13.98
182,iranshahr,0,IR,1614829100,48,27.2025,60.6848,62.6,6.91
183,atuona,63,PF,1614829103,69,-9.8,-139.0333,80.44,8.19
184,sagua la grande,40,CU,1614829104,94,22.8067,-80.0756,68.0,3.44
185,sovetskiy,66,RU,1614829105,96,61.3614,63.5842,11.34,4.9
186,palana,100,RU,1614829106,94,59.1167,159.9667,-2.51,33.62
187,sinop,71,TR,1614829107,94,41.7711,34.8709,31.03,3.69
188,sydney,0,AU,1614828959,34,-33.8679,151.2073,80.6,6.91
189,verkhoyansk,100,RU,1614829111,79,67.5447,133.385,-24.18,1.59
190,zenzeli,3,RU,1614829112,96,45.9241,47.0474,30.31,11.05
191,nanortalik,100,GL,1614829115,80,60.1432,-45.2371,36.79,21.94
192,sibu,20,MY,1614829116,74,2.3,111.8167,84.2,4.61
193,fort morgan,1,US,1614829117,24,40.2503,-103.8,44.6,6.91
194,nuuk,91,GL,1614829118,49,64.1835,-51.7216,42.8,13.8
195,saint-jean-de-la-ruelle,40,FR,1614829120,87,47.9113,1.8648,46.4,5.75
196,mandalgovi,100,MN,1614829121,44,45.7625,106.2708,28.2,13.27
197,abha,0,SA,1614829122,82,18.2164,42.5053,57.2,8.05
198,letlhakane,0,BW,1614829123,59,-21.4167,25.5833,66.07,3.74
199,haines junction,100,CA,1614829125,58,60.7522,-137.5108,19.4,5.75
200,anan,75,JP,1614829126,62,33.9167,134.65,53.6,9.22
201,moron,68,AR,1614829094,86,-34.6534,-58.6198,79.0,4.0
202,aksay,0,RU,1614829128,86,47.26,39.87,27.0,6.71
203,codrington,100,AU,1614828957,70,-38.2667,141.9667,63.03,14.05
204,hithadhoo,19,MV,1614829130,65,-0.6,73.0833,83.05,9.93
205,batagay-alyta,100,RU,1614829131,83,67.8006,130.4114,-13.97,11.68
206,san angelo,1,US,1614829020,38,31.4638,-100.437,57.0,6.91
207,khlevnoye,0,RU,1614829134,80,52.1951,39.0932,30.2,11.18
208,klaksvik,80,FO,1614828985,80,62.2266,-6.589,28.4,2.3
209,bathsheba,40,BB,1614828954,69,13.2167,-59.5167,78.8,20.71
210,chapais,1,CA,1614829025,71,49.7834,-74.8492,-5.8,9.22
211,chuy,72,UY,1614829138,90,-33.6971,-53.4616,71.85,11.01
212,pangoa,75,PE,1614829139,89,-12.1167,-73.0,68.83,1.88
213,annau,75,TM,1614829141,57,37.8876,58.516,50.0,16.11
214,paita,63,PE,1614829143,73,-5.0892,-81.1144,75.69,7.31
215,antofagasta,0,CL,1614828888,82,-23.65,-70.4,66.2,6.91
216,never,18,FR,1614829145,86,46.9896,3.159,35.01,2.57
217,haimen,40,CN,1614829147,82,23.1935,116.6142,60.8,4.47
218,mount gambier,90,AU,1614829148,63,-37.8333,140.7667,64.4,14.97
219,liverpool,90,GB,1614829149,93,53.4106,-2.9779,39.2,5.75
220,half moon bay,90,US,1614828953,81,37.4636,-122.4286,51.01,8.05
221,georgetown,20,MY,1614829127,62,5.4112,100.3354,87.8,3.44
222,phan thiet,10,VN,1614829152,46,10.9333,108.1,89.69,15.37
223,izhma,99,RU,1614829154,94,65.0083,53.9113,3.42,4.61
224,te anau,36,NZ,1614829155,46,-45.4167,167.7167,57.7,10.54
225,port elizabeth,75,ZA,1614829156,94,-33.918,25.5701,66.2,8.05
226,iquique,0,CL,1614829104,68,-20.2208,-70.1431,73.4,10.36
227,pauini,95,BR,1614829159,97,-7.7136,-66.9764,71.31,2.06
228,buraydah,0,SA,1614829160,55,26.326,43.975,62.6,8.05
229,adrar,95,MR,1614829010,22,20.5022,-10.0711,66.36,9.78
230,nabire,97,ID,1614829162,53,-3.3667,135.4833,88.12,6.04
231,ust-maya,100,RU,1614829163,85,60.4167,134.5333,-16.65,7.29
232,yazman,0,PK,1614829164,15,29.1212,71.7446,76.44,10.33
233,naze,75,JP,1614829057,56,28.3667,129.4833,69.8,13.8
234,barcelos,20,PT,1614829151,87,41.5388,-8.6151,53.6,4.61
235,cayenne,75,GF,1614829168,89,4.9333,-52.3333,79.0,4.61
236,santa fe,100,AR,1614829153,84,-31.6333,-60.7,75.0,1.99
237,saint-philippe,0,RE,1614829170,65,-21.3585,55.7679,80.6,4.61
238,igarka,100,RU,1614829171,96,67.4667,86.5833,-12.5,17.36
239,aklavik,96,CA,1614829172,76,68.2191,-135.0107,-20.2,1.14
240,ewa beach,20,US,1614829173,53,21.3156,-158.0072,77.0,9.22
241,axim,100,GH,1614829175,90,4.8699,-2.2405,79.56,9.55
242,apahida,0,RO,1614829176,93,46.8167,23.75,28.4,1.14
243,nedjo,49,ET,1614829177,66,9.5046,35.5019,61.63,4.05
244,datong,0,CN,1614829178,41,40.0936,113.2914,50.2,7.36
245,betong,1,TH,1614829179,45,5.7743,101.0723,92.79,2.1
246,muros,100,ES,1614829181,93,42.7762,-9.0603,50.0,5.5
247,vila franca do campo,75,PT,1614829182,100,37.7167,-25.4333,59.0,13.8
248,mamallapuram,20,IN,1614829183,73,12.6264,80.1722,78.8,3.44
249,sao filipe,56,CV,1614829006,75,14.8961,-24.4956,70.32,9.53
250,cockburn town,0,TC,1614828974,83,21.4612,-71.1419,76.86,15.68
251,dawei,16,MM,1614829187,45,14.0833,98.2,92.73,3.18
252,kalengwa,95,ZM,1614829189,98,-13.4659,25.0027,60.06,1.66
253,coihaique,20,CL,1614829089,76,-45.5752,-72.0662,55.4,4.61
254,camacha,20,PT,1614829192,72,33.0833,-16.3333,59.0,10.31
255,poroshkovo,14,UA,1614829193,83,48.6683,22.7533,34.0,1.01
256,mjolby,90,SE,1614829194,80,58.326,15.1237,33.8,8.05
257,buenos aires,75,AR,1614829195,88,-34.6132,-58.3772,79.0,19.57
258,alofi,40,NU,1614829000,74,-19.0595,-169.9187,84.2,3.44
259,lata,100,PT,1614829009,88,40.1629,-8.3327,57.0,2.04
260,mecca,2,SA,1614829169,71,21.4267,39.8261,67.66,5.61
261,champasak,0,LA,1614829201,58,14.75,106.0,86.0,4.61
262,cururupu,0,BR,1614829203,95,-1.8283,-44.8683,73.56,2.17
263,san carlos de bariloche,0,AR,1614829206,67,-41.1456,-71.3082,62.6,5.75
264,kindu,100,CD,1614829207,98,-2.95,25.95,67.19,3.11
265,port augusta,0,AU,1614829110,43,-32.5,137.7667,84.0,12.66
266,inirida,0,CO,1614829209,85,3.8653,-67.9239,74.12,1.32
267,anito,47,PH,1614829211,86,12.4497,125.2886,80.15,11.23
268,olinda,40,BR,1614829031,73,-8.0089,-34.8553,78.8,9.22
269,goure,0,NE,1614829213,15,13.9835,10.2704,73.0,10.0
270,guaymas,27,MX,1614829214,43,27.9333,-110.9,66.99,1.99
271,agadez,0,NE,1614829036,29,19.75,10.25,58.12,4.18
272,trelew,100,AR,1614829216,88,-43.249,-65.3051,63.36,10.67
273,tessalit,100,ML,1614829042,10,20.1986,1.0114,67.12,9.19
274,la pila,20,MX,1614829219,39,22.05,-100.8667,64.4,3.98
275,gucheng,3,CN,1614829220,38,35.9115,111.3192,58.78,2.42
276,kununurra,40,AU,1614829221,29,-15.7667,128.7333,96.8,3.44
277,bardiyah,0,LY,1614829223,71,31.7561,25.0865,53.37,5.82
278,talnakh,51,RU,1614829006,75,69.4865,88.3972,-19.17,10.16
279,lipin bor,80,RU,1614829225,97,60.2622,37.9763,23.07,14.16
280,ponta do sol,66,PT,1614829226,73,32.6667,-17.1,60.01,1.01
281,namibe,32,AO,1614829228,85,-15.1961,12.1522,72.7,1.48
282,aquiraz,40,BR,1614829229,83,-3.9014,-38.3911,82.99,10.36
283,libertador general san martin,78,AR,1614829230,98,-23.8064,-64.7876,71.01,1.68
284,knysna,0,ZA,1614829232,88,-34.0363,23.0471,59.0,3.44
285,hovd,0,MN,1614829233,57,48.0056,91.6419,22.26,4.27
286,kroya,100,ID,1614829023,62,-7.6331,109.2461,87.48,4.63
287,ornskoldsvik,60,SE,1614829235,74,63.2909,18.7153,24.8,12.66
288,kabo,56,CF,1614829236,23,7.6994,18.629,70.07,3.67
289,cap malheureux,39,MU,1614829013,74,-19.9842,57.6142,81.0,3.0
290,lodja,100,CD,1614829240,87,-3.4833,23.4333,69.58,2.53
291,yerbogachen,1,RU,1614829241,83,61.2767,108.0108,-21.75,5.57
292,nizhniy kuranakh,100,RU,1614829242,89,58.8353,125.4869,-15.74,10.96
293,mwingi,59,KE,1614829243,90,-0.9344,38.0601,67.05,2.82
294,sitamau,0,IN,1614829244,11,24.0167,75.35,81.01,3.6
295,chiriguana,7,CO,1614829245,48,9.3624,-73.6031,77.68,3.27
296,willowmore,4,ZA,1614829247,84,-33.2926,23.4895,60.71,4.07
297,carutapera,85,BR,1614829160,92,-1.195,-46.02,75.11,5.68
298,ulladulla,0,AU,1614829052,29,-35.35,150.4667,80.6,10.36
299,broome,75,US,1614829251,75,42.2506,-75.833,35.01,8.05
300,galich,98,RU,1614829252,96,58.3797,42.3475,28.17,7.52
301,ossora,99,RU,1614829254,81,59.2353,163.0719,1.85,17.92
302,vila velha,20,BR,1614829255,94,-20.3297,-40.2925,75.2,2.3
303,guacimo,0,CR,1614829256,60,10.2104,-83.6807,69.8,10.36
304,beitbridge,0,ZW,1614829257,72,-22.2167,30.0,69.37,2.26
305,okhotsk,0,RU,1614829258,74,59.3833,143.3,-9.17,14.7
306,hillsborough,90,US,1614829260,81,37.5741,-122.3794,51.01,8.05
307,santa rosa,40,PH,1614829261,62,14.3122,121.1114,87.8,10.36
308,awjilah,0,LY,1614829262,67,29.1081,21.2869,46.98,5.68
309,ouadda,2,CF,1614829263,21,8.0777,22.4007,71.35,8.1
310,nanga eboko,100,CM,1614829264,98,4.6833,12.3667,68.27,3.09
311,sao joao da barra,99,BR,1614829265,89,-21.6403,-41.0511,75.27,13.22
312,guerrero negro,10,MX,1614829266,71,27.9769,-114.0611,60.06,11.52
313,la asuncion,0,VE,1614829010,89,11.0333,-63.8628,73.62,10.18
314,kavieng,54,PG,1614829269,73,-2.5744,150.7967,83.48,11.27
315,sistranda,75,NO,1614829270,93,63.7256,8.834,32.0,20.71
316,oussouye,0,SN,1614829271,83,12.485,-16.5469,71.6,4.61
317,gidam,0,IN,1614829272,20,18.9833,81.4,88.48,1.83
318,kleive,75,NO,1614829274,93,62.7954,7.6359,30.2,3.44
319,terrace,90,CA,1614829275,100,54.5163,-128.6035,32.0,2.48
320,shenjiamen,54,CN,1614829277,85,29.9576,122.298,50.16,17.6
321,two rivers,75,US,1614829278,86,44.1539,-87.5693,33.01,5.75
322,vanimo,99,PG,1614829279,77,-2.6741,141.3028,82.58,7.78
323,mahanje,100,TZ,1614829281,98,-9.9333,35.3333,65.19,1.57
324,kefalos,0,GR,1614829282,66,36.7453,26.9589,53.6,8.05
325,waterford,75,US,1614829283,70,42.7023,-83.4027,37.99,6.91
326,kalinagar,0,IN,1614829284,17,28.6167,80.1,78.37,3.18
327,cherskiy,100,RU,1614829286,94,68.75,161.3,2.35,4.7
328,iqaluit,90,CA,1614829052,77,63.7506,-68.5145,-4.0,28.77
329,pareora,96,NZ,1614829288,74,-44.4871,171.2132,62.01,4.0
330,petropavlovsk-kamchatskiy,75,RU,1614829077,49,53.0452,158.6483,17.6,17.9
331,yukamenskoye,99,RU,1614829290,97,57.8865,52.2416,14.72,9.35
332,luwuk,100,ID,1614829292,78,-0.9516,122.7875,79.79,4.18
333,alihe,100,CN,1614829293,88,50.5667,123.7167,25.34,4.63
334,provideniya,0,RU,1614829004,78,64.3833,-173.3,-2.2,13.42
335,manaure,43,CO,1614829295,79,11.7751,-72.4445,76.37,13.96
336,synya,100,RU,1614829297,97,65.3718,58.0387,12.63,0.63
337,qandala,37,SO,1614829298,68,11.472,49.8728,76.3,4.7
338,chilca,0,PE,1614829299,83,-12.5211,-76.7372,78.01,6.91
339,waiblingen,0,DE,1614829300,81,48.8324,9.3164,45.0,1.14
340,sisimiut,100,GL,1614829042,88,66.9395,-53.6735,23.29,11.77
341,northam,92,GB,1614829302,95,51.0333,-4.2167,46.0,1.99
342,hami,94,CN,1614829303,52,42.8,93.45,45.0,13.04
343,cotonou,40,BJ,1614829306,84,6.3654,2.4183,84.2,12.66
344,saldanha,7,ZA,1614829101,88,-33.0117,17.9442,64.4,5.75
345,belmonte,20,BR,1614829308,78,-15.8631,-38.8828,77.0,5.75
346,tecpan,0,GT,1614829309,63,14.7623,-90.9947,64.4,13.8
347,teya,100,RU,1614829310,86,60.3778,92.6267,-2.74,5.5
348,varjota,57,BR,1614829311,96,-4.1944,-40.4767,70.79,1.34
349,calabozo,17,VE,1614829313,47,8.9242,-67.4293,75.78,8.01
350,thompson,20,CA,1614829314,85,55.7435,-97.8558,12.2,2.3
351,george town,20,MY,1614829196,62,5.4112,100.3354,87.8,3.44
352,berlevag,100,NO,1614829058,94,70.8578,29.0864,27.14,15.66
353,harper,25,LR,1614829317,88,4.375,-7.7169,79.03,6.69
354,pemberton,99,CA,1614829318,65,50.3164,-122.8027,44.6,3.44
355,sobolevo,62,RU,1614829319,89,54.4299,31.8996,31.14,11.03
356,wajima,75,JP,1614829320,62,37.4,136.9,53.6,6.91
357,katsuura,75,JP,1614829031,58,35.1333,140.3,55.4,11.5
358,iberia,1,US,1614829322,66,29.9502,-91.7507,53.6,3.44
359,ulverstone,63,AU,1614829324,57,-41.15,146.1667,73.99,28.99
360,san juan,17,AR,1614829325,47,-31.5375,-68.5364,78.39,4.0
361,pindushi,61,RU,1614829326,96,62.9152,34.58,11.23,6.06
362,longyearbyen,40,SJ,1614829323,66,78.2186,15.6401,6.8,9.22
363,pasighat,63,IN,1614829038,28,28.0667,95.3333,81.12,2.77
364,kulhudhuffushi,31,MV,1614829330,67,6.6221,73.07,82.2,14.74
365,kieta,73,PG,1614829150,67,-6.2167,155.6333,83.98,12.12
366,saint-denis,26,FR,1614829332,100,48.9167,2.3333,46.99,2.3
367,carauari,93,BR,1614829333,93,-4.8828,-66.8958,71.31,1.48
368,paamiut,100,GL,1614829334,50,61.994,-49.6678,42.46,14.32
369,luderitz,0,NA,1614829335,64,-26.6481,15.1594,67.37,13.49
370,deputatskiy,100,RU,1614829337,87,69.3,139.9,-23.89,6.15
371,batemans bay,0,AU,1614829338,56,-35.7167,150.1833,75.0,3.0
372,whitehorse,75,CA,1614829048,68,60.7161,-135.0538,23.0,3.44
373,matinha,68,BR,1614829340,98,-3.1006,-45.0336,72.75,2.24
374,adeje,20,ES,1614829341,67,28.1227,-16.726,61.0,8.05
375,qaqortoq,75,GL,1614829343,31,60.7167,-46.0333,48.2,44.87
376,san-pedro,18,CI,1614829344,91,4.7485,-6.6363,77.68,8.23
377,luocheng,82,CN,1614829345,37,29.3848,104.0286,65.12,2.98
378,havoysund,90,NO,1614829346,86,70.9963,24.6622,23.0,20.71
379,aviemore,90,GB,1614829348,100,57.1955,-3.8259,37.99,3.04
380,pichayevo,100,RU,1614829349,98,53.2363,42.2032,27.91,16.02
381,beringovskiy,100,RU,1614829350,92,63.05,179.3167,23.07,47.13
382,malang,20,ID,1614829331,84,-7.9797,112.6304,84.2,5.75
383,padang,20,ID,1614829352,70,-0.9492,100.3543,86.0,3.44
384,bilma,0,NE,1614829300,14,18.6853,12.9164,62.17,9.64
385,lavrentiya,99,RU,1614829355,88,65.5833,-171.0,-12.77,5.95
386,ixtapa,1,MX,1614829147,83,20.7,-105.2,73.0,1.57
387,port blair,40,IN,1614829355,79,11.6667,92.75,84.2,11.5
388,pangnirtung,100,CA,1614829061,86,66.1451,-65.7125,9.99,0.94
389,zorgo,2,BF,1614829359,17,12.2489,-0.6158,78.76,10.63
390,halifax,0,CA,1614829160,59,44.6453,-63.5724,30.2,12.66
391,kysyl-syr,100,RU,1614829099,84,63.8986,122.7617,-22.97,8.79
392,salinopolis,100,BR,1614829328,87,-0.6136,-47.3561,77.81,8.79
393,tamiahua,92,MX,1614829364,82,21.2667,-97.45,67.95,2.59
394,pangkalanbuun,65,ID,1614829365,77,-2.6833,111.6167,85.17,2.19
395,dunedin,100,NZ,1614829366,74,-45.8742,170.5036,55.99,18.01
396,vilyuysk,100,RU,1614829368,85,63.7553,121.6247,-19.84,9.37
397,athens,0,GR,1614829139,65,37.9795,23.7162,50.0,6.71
398,lerwick,90,GB,1614829342,69,60.1545,-1.1494,35.6,11.5
399,huangchuan,0,CN,1614829372,56,32.1272,115.0394,60.22,9.26
400,pathein,0,MM,1614829076,18,16.7833,94.7333,93.31,6.06
401,constitucion,0,CL,1614829151,60,-35.3333,-72.4167,63.64,9.04
402,bilibino,100,RU,1614829147,88,68.0546,166.4372,-2.0,22.17
403,lensk,51,RU,1614829378,81,60.7253,114.9278,-18.6,8.55
404,elizabeth city,1,US,1614829380,70,36.2946,-76.2511,42.8,3.87
405,dalian,0,CN,1614829381,66,38.9122,121.6022,48.2,6.71
406,pokosnoye,46,RU,1614829382,87,55.5258,101.0536,-7.02,4.79
407,talara,87,PE,1614829383,76,-4.5772,-81.2719,76.12,6.64
408,mandurah,56,AU,1614829264,88,-32.55,115.7,78.01,1.99
409,oranjemund,0,NA,1614829386,91,-28.55,16.4333,61.43,6.49
410,catamarca,35,AR,1614829288,99,-28.4696,-65.7852,71.01,3.74
411,champerico,26,GT,1614829388,95,14.3,-91.9167,68.0,6.31
412,chingola,97,ZM,1614829390,99,-12.529,27.8838,59.65,2.04
413,nemuro,20,JP,1614829391,60,43.3236,145.575,33.8,18.41
414,nhulunbuy,75,AU,1614829392,66,-12.2333,136.7667,89.6,10.36
415,malanje,100,AO,1614829393,96,-9.5402,16.341,65.57,1.79
416,letlhakeng,1,BW,1614829394,56,-24.0944,25.0298,65.23,4.09
417,norman wells,20,CA,1614829395,76,65.282,-126.8329,-20.2,2.3
418,nikolaevo,90,BG,1614829348,100,42.6333,25.8,34.0,2.3
419,mayo,1,US,1614829400,70,38.8876,-76.5119,42.8,9.64
420,praia,0,CV,1614829401,68,14.9215,-23.5087,69.8,16.11
421,anlu,0,CN,1614829402,58,31.1661,112.5831,61.61,10.49
422,bo rai,40,TH,1614829404,74,12.5728,102.5371,93.0,2.3
423,panaba,11,MX,1614829406,90,21.2833,-88.2667,72.46,6.69
424,doha,0,QA,1614829337,77,25.2867,51.5333,68.0,4.61
425,boa vista,0,BR,1614829408,69,2.8197,-60.6733,78.8,9.22
426,abu dhabi,90,AE,1614829198,100,24.4667,54.3667,68.0,2.3
427,labuhan,97,ID,1614829410,71,-6.8844,112.2051,85.66,7.27
428,laela,100,TZ,1614829411,98,-8.5667,32.05,61.21,2.24
429,christchurch,75,NZ,1614829280,60,-43.5333,172.6333,68.0,6.91
430,chifeng,0,CN,1614829412,39,42.2683,118.9636,52.34,18.1
431,aloleng,0,PH,1614829415,61,16.1307,119.7824,86.38,1.83
432,karpogory,96,RU,1614829416,95,64.0019,44.4451,4.15,4.09
433,laguna,1,US,1614829117,66,38.421,-121.4238,53.6,11.5
434,vila,100,PT,1614829418,93,42.0304,-8.1588,46.0,1.99
435,lavumisa,14,SZ,1614829420,94,-27.31,31.892,64.62,1.59
436,nizhnevartovsk,90,RU,1614829421,85,60.9344,76.5531,14.0,8.95
437,pau,20,FR,1614829422,93,43.4167,-0.5833,44.6,5.75
438,nuristan,24,AF,1614829423,86,35.3,70.8333,22.91,5.28
439,nador,75,MA,1614829203,88,35.174,-2.9287,59.0,10.36
440,burnie,86,AU,1614829426,58,-41.0667,145.9167,64.0,30.0
441,vao,99,NC,1614829427,87,-22.6667,167.4833,78.89,11.12
442,whyalla,0,AU,1614829428,43,-33.0333,137.5833,73.4,12.66
443,aykhal,0,RU,1614829429,76,66.0,111.5,-20.7,4.05
444,ankang,0,CN,1614829430,34,32.68,109.0172,57.99,11.01
445,zonguldak,0,TR,1614829432,97,41.25,31.8333,30.02,2.64
446,khuzdar,0,PK,1614829433,16,27.7384,66.6434,67.28,2.08
447,los llanos de aridane,0,ES,1614829434,59,28.6585,-17.9182,62.6,10.36
448,masalli,90,KR,1614829436,81,34.7959,126.6553,48.2,10.36
449,atamanskaya,0,RU,1614829437,93,46.1773,39.6358,31.37,6.46
450,biak,100,ID,1614829439,69,-0.9131,122.8766,80.85,3.62
451,san policarpo,50,PH,1614829441,84,12.1791,125.5072,80.78,13.82
452,kalyazin,98,RU,1614829442,98,57.2403,37.8433,31.66,17.65
453,mrakovo,99,RU,1614829443,95,52.7161,56.6244,13.68,5.44
454,savannah bight,0,HN,1614829444,88,16.45,-85.85,78.01,11.86
455,san mateo del mar,56,MX,1614829446,71,16.2,-95.0,77.74,33.71
456,fare,100,PF,1614829447,73,-16.7,-151.0167,82.65,10.36
457,khani,75,GE,1614829448,93,41.9563,42.9566,35.6,4.61
458,yen bai,72,VN,1614829449,56,21.7,104.8667,73.17,4.21
459,tadine,97,NC,1614829452,81,-21.55,167.8833,81.91,11.05
460,sioux lookout,20,CA,1614829453,79,50.1001,-91.917,10.4,4.36
461,lalibela,2,ET,1614829454,47,12.0333,39.0333,57.43,2.93
462,herat,0,AF,1614829455,53,34.5,62.0,44.6,2.3
463,peruibe,100,BR,1614829385,87,-24.32,-46.9983,75.24,4.61
464,plettenberg bay,0,ZA,1614829459,91,-34.0527,23.3716,62.8,2.91
465,korem,0,ET,1614829460,74,12.5058,39.5228,51.12,2.62
466,sur,0,OM,1614829359,36,22.5667,59.5289,82.72,2.73
467,alexandria,0,EG,1614829462,68,31.2156,29.9553,57.16,16.75
468,mareeba,100,AU,1614829464,49,-17.0,145.4333,91.4,12.66
469,sainte-anne-des-monts,74,CA,1614829465,67,49.124,-66.4924,15.8,28.77
470,erzin,21,TR,1614829466,75,36.9559,36.2,52.0,4.0
471,harnai,0,PK,1614829467,15,30.1005,67.9374,70.07,4.68
472,shahrud,0,IR,1614829468,66,36.4182,54.9763,41.5,11.05
473,saint-pierre,0,RE,1614829470,61,-21.3393,55.4781,82.4,4.61
474,port lincoln,1,AU,1614829472,57,-34.7333,135.8667,66.81,11.63
475,helong,0,CN,1614829473,41,42.5397,128.9972,51.78,9.35
476,puerto madero,40,MX,1614829474,94,14.7208,-92.4215,77.0,1.86
477,pipraich,0,IN,1614829476,21,26.8264,83.53,75.69,4.59
478,acapulco,75,MX,1614829477,83,16.8634,-99.8901,78.8,4.56
479,capreol,90,CA,1614829478,73,46.706,-80.9225,21.0,11.5
480,lodwar,95,KE,1614829479,40,3.1191,35.5973,80.19,5.41
481,gazanjyk,77,TM,1614829480,85,39.2446,55.5154,44.44,6.51
482,riberalta,99,BO,1614829481,94,-10.9833,-66.1,72.88,2.91
483,kihei,40,US,1614829483,64,20.785,-156.4656,75.2,24.16
484,sola,90,VU,1614829484,100,-13.8833,167.55,82.4,11.5
485,ust-kut,18,RU,1614829485,82,56.7938,105.7672,-8.68,1.28
486,novyy buh,0,UA,1614829486,86,47.6931,32.5216,28.4,6.71
487,taikang,99,CN,1614829488,83,46.8333,124.4167,35.51,5.46
488,saint stephen,75,GB,1614829489,100,50.3333,-4.9,46.4,6.91
489,swidwin,85,PL,1614829490,91,53.7746,15.7767,35.01,1.99
490,kudahuvadhoo,33,MV,1614829491,64,2.6708,72.8944,81.61,9.84
491,lac-megantic,98,CA,1614829492,100,45.5834,-70.8823,19.0,5.01
492,bandarbeyla,34,SO,1614829494,74,9.4942,50.8122,76.6,14.36
493,shimoda,75,JP,1614829495,66,34.6667,138.95,53.6,13.8
494,fort nelson,75,CA,1614829496,72,58.8053,-122.7002,8.6,8.05
495,kimberley,0,ZA,1614829497,72,-28.7323,24.7623,62.6,8.05
496,tiksi,100,RU,1614829499,89,71.6872,128.8694,-12.66,10.67
497,longyan,63,CN,1614829500,68,25.1072,117.0225,71.76,3.42
498,sorland,98,NO,1614829501,82,67.667,12.6934,33.94,20.11
499,oum hadjer,100,TD,1614829217,22,13.2954,19.6966,67.96,8.66
500,eyl,22,SO,1614829504,78,7.9803,49.8164,75.13,14.88
501,sturgis,1,US,1614829505,75,41.7992,-85.4192,35.6,4.61
502,houston,90,US,1614829265,66,29.7633,-95.3633,55.0,8.05
503,sangueya,0,GN,1614829508,90,10.7,-14.3667,69.51,0.92
504,fort smith,1,US,1614829384,54,35.3859,-94.3986,51.8,3.44
505,tarutyne,0,UA,1614829510,88,46.1858,29.1506,37.15,9.89
506,benjamin constant,75,BR,1614829511,100,-4.3831,-70.0311,75.2,2.3
507,karasjok,40,NO,1614829512,68,69.4719,25.5112,24.8,19.57
508,pervoye maya,90,RU,1614829514,93,56.164,44.7196,30.2,13.42
509,beloha,5,MG,1614829515,92,-25.1667,45.05,73.58,3.38
510,biao,40,PH,1614829516,62,7.1633,125.5211,87.8,10.36
511,ola,71,RU,1614829475,86,59.5833,151.2833,-3.95,16.2
512,husavik,0,IS,1614829519,80,66.0449,-17.3389,32.0,3.44
513,tlanalapan,12,MX,1614829521,68,19.25,-97.2667,44.38,1.45
514,tazovskiy,100,RU,1614829522,93,67.4667,78.7,0.34,21.39
515,nikolayevka,100,RU,1614829523,95,53.1257,47.2041,23.34,15.39
516,lucea,75,JM,1614829524,83,18.451,-78.1736,77.0,5.75
517,majalgaon,0,IN,1614829525,13,19.15,76.2333,84.9,0.98
518,barinas,26,VE,1614829526,39,8.6226,-70.2075,77.56,4.0
519,luena,93,AO,1614829528,94,-11.7833,19.9167,60.39,1.52
520,kilindoni,100,TZ,1614829529,77,-7.9139,39.6668,81.5,14.05
521,trairi,64,BR,1614829530,83,-3.2778,-39.2689,78.13,8.05
522,shakawe,0,BW,1614829531,79,-18.3667,21.85,61.11,2.35
523,elat,0,IL,1614829532,62,29.5581,34.9482,53.6,4.61
524,nara,75,JP,1614829533,48,34.6851,135.8049,60.8,3.44
525,maumere,63,ID,1614829534,65,-8.6199,122.2111,84.99,1.05
526,banda aceh,2,ID,1614829359,67,5.5577,95.3222,86.32,14.5
527,preobrazheniye,52,RU,1614829537,81,42.9019,133.9064,39.24,11.95
528,aracaju,40,BR,1614829538,69,-10.9111,-37.0717,80.6,11.5
529,ucluelet,100,CA,1614829318,82,48.9329,-125.5528,45.0,1.01
530,yanam,0,IN,1614829541,61,16.7333,82.2167,80.6,3.44
531,springdale,1,US,1614829527,61,36.1867,-94.1288,51.8,4.14
532,najran,0,SA,1614829544,29,17.4924,44.1277,62.6,6.91
533,mabaruma,0,GY,1614829545,96,8.2,-59.7833,71.92,2.19
534,gurupi,100,BR,1614829546,92,-11.7292,-49.0686,72.14,1.3
535,natal,40,BR,1614829323,83,-5.795,-35.2094,78.8,9.22
536,parkes,0,AU,1614829548,26,-33.1333,148.1833,80.04,8.61
537,egvekinot,100,RU,1614829550,94,66.3167,-179.1667,-4.32,11.07
538,klyuchi,100,RU,1614829551,95,52.2667,79.1667,20.14,16.26
539,novoagansk,99,RU,1614829552,91,61.9449,76.6625,10.69,12.19
540,hobyo,0,SO,1614829554,76,5.3505,48.5268,79.12,18.21
541,bonthe,1,SL,1614829542,93,7.5264,-12.505,77.99,5.57
542,rehoboth,0,NA,1614829557,47,-23.3167,17.0833,64.11,2.89
543,san vicente,75,AR,1614829558,100,-26.6167,-54.1333,65.46,3.04
544,srednekolymsk,100,RU,1614829559,86,67.45,153.6833,-21.5,16.93
545,bontang,99,ID,1614829560,68,0.1333,117.5,82.74,11.63
546,karratha,30,AU,1614829562,50,-20.7377,116.8463,86.52,7.74
547,odesskoye,100,RU,1614829563,98,54.2111,72.9651,29.16,18.43
548,bubaque,0,GW,1614829564,70,11.2833,-15.8333,77.47,5.57
549,aleksandrovskoye,24,RU,1614829565,86,44.7142,43.0008,24.8,11.18
550,taoudenni,100,ML,1614829566,22,22.6783,-3.9836,67.78,9.44
551,manakara,99,MG,1614829567,90,-22.1333,48.0167,75.83,4.99
552,neiafu,40,TO,1614829568,79,-18.65,-173.9833,84.2,9.22
553,salalah,0,OM,1614829569,68,17.0151,54.0924,68.0,4.61
554,el campo,1,US,1614829571,76,29.1966,-96.2697,52.0,6.53
555,terrace bay,65,CA,1614829572,72,48.7834,-87.1,10.4,6.91
556,nantucket,4,US,1614829377,77,41.2835,-70.0995,36.0,14.34
557,salta,90,AR,1614829574,94,-24.7859,-65.4117,64.4,2.3
558,olafsvik,82,IS,1614829576,92,64.8945,-23.7142,40.59,17.13
559,otradnoye,0,RU,1614829578,80,59.7775,30.8181,28.4,13.42
560,kavaratti,1,IN,1614829579,66,10.5669,72.642,82.49,6.35
561,bayir,0,TR,1614829580,60,37.2687,28.2167,41.0,3.44
562,suzaka,75,JP,1614829582,48,36.65,138.3167,54.0,4.12
563,touros,40,BR,1614829583,94,-5.1989,-35.4608,75.2,4.61
564,isla mujeres,75,MX,1614829584,78,21.2311,-86.731,79.0,4.61
565,arys,75,KZ,1614829585,87,42.4252,68.795,42.8,5.99
566,bolshaya dzhalga,9,RU,1614829586,98,45.9695,42.6966,29.75,8.7
567,hofn,34,IS,1614829588,87,64.2539,-15.2082,34.41,8.41
568,port hardy,90,CA,1614829504,93,50.6996,-127.4199,44.6,6.91
569,waingapu,100,ID,1614829590,64,-9.6567,120.2641,86.79,7.76
570,rancho palos verdes,6,US,1614829295,85,33.7445,-118.387,54.0,3.71
571,angoche,90,MZ,1614829592,94,-16.2325,39.9086,75.87,9.46
572,solnechnyy,55,RU,1614829594,92,50.7214,136.6319,28.69,5.3
573,westerland,78,DE,1614829596,89,54.9079,8.3033,39.99,13.0
574,ostrovnoy,100,RU,1614829597,94,68.0531,39.5131,15.6,13.35
575,old saybrook,0,US,1614829598,74,41.2918,-72.3762,37.0,1.01
576,zhigansk,100,RU,1614829600,82,66.7697,123.3711,-28.28,9.78
577,panguna,81,PG,1614829602,67,-6.3164,155.4848,80.37,6.38
578,westerly,75,US,1614829603,86,41.3776,-71.8273,30.99,6.71
579,florida,90,US,1614829604,82,28.7505,-82.5001,57.0,6.91
580,lagoa,100,PT,1614829605,89,39.05,-27.9833,60.48,20.69
581,olkhovka,89,RU,1614829607,95,53.2115,60.6069,16.41,10.6
582,sangmelima,79,CM,1614829608,97,2.9333,11.9833,68.29,2.39
583,merrill,1,US,1614829609,69,45.1805,-89.6835,30.2,4.43
584,karla,0,EE,1614829610,80,59.3723,24.9275,30.2,9.22
585,zhurivka,90,UA,1614829611,100,50.5028,31.7849,30.2,11.18
586,lima,0,PE,1614829380,83,-12.0432,-77.0282,78.01,6.91
587,kaeo,69,NZ,1614829614,90,-35.1,173.7833,72.0,7.0
588,hounde,1,BF,1614829615,20,11.5,-3.5167,77.27,6.96
589,makakilo city,20,US,1614829616,53,21.3469,-158.0858,77.0,9.22
590,luoyang,0,CN,1614829617,37,34.6836,112.4536,63.54,4.59
591,kosh-agach,0,RU,1614829619,75,50.0,88.6667,-0.49,1.07
592,lorengau,70,PG,1614829620,79,-2.0226,147.2712,82.87,13.53
593,sabla,4,NG,1614829621,16,12.7525,4.7077,77.74,14.85
594,russell,1,US,1614829505,87,32.3502,-85.1999,53.6,5.06
595,grenfell,0,AU,1614829624,20,-33.9,148.1667,79.97,11.95
596,viedma,97,AR,1614829626,85,-40.8135,-62.9967,70.38,8.25
597,komsomolskiy,85,UZ,1614829501,87,40.4272,71.7189,41.0,6.91
598,quesnel,90,CA,1614829629,42,52.9999,-122.5029,42.8,14.97
599,obo,43,CF,1614829630,19,5.3998,26.4869,75.54,5.82
